{
    "locations": [
        {
            "id": 296,
            "name": "板橋区役所前",
            "latitude": 35.751326,
            "longitude": 139.710166,
            "cp": 152,
            "color": "#ea5549",
            "rent": 8,
            "time": 28
        },
        {
            "id": 297,
            "name": "板橋本町",
            "latitude": 35.761339,
            "longitude": 139.705535,
            "cp": 156,
            "color": "#ea5549",
            "rent": 7.9,
            "time": 29
        },
        {
            "id": 298,
            "name": "飯田橋",
            "latitude": 35.702065,
            "longitude": 139.745015,
            "cp": 266,
            "color": "#ea5549",
            "rent": 10.9,
            "time": 11
        },
        {
            "id": 299,
            "name": "百合ヶ丘",
            "latitude": 35.608963,
            "longitude": 139.515901,
            "cp": 44,
            "color": "#98FB98",
            "rent": 5.4,
            "time": 26
        },
        {
            "id": 300,
            "name": "氷川台",
            "latitude": 35.749822,
            "longitude": 139.665023,
            "cp": 53,
            "color": "#98FB98",
            "rent": 7.2,
            "time": 19
        },
        {
            "id": 301,
            "name": "表参道",
            "latitude": 35.665247,
            "longitude": 139.712314,
            "cp": 279,
            "color": "#ea5549",
            "rent": 11.5,
            "time": 11
        },
        {
            "id": 302,
            "name": "品川",
            "latitude": 35.63015,
            "longitude": 139.7404,
            "cp": 304,
            "color": "#ea5549",
            "rent": 10.1,
            "time": 21
        },
        {
            "id": 303,
            "name": "浜松町",
            "latitude": 35.65565,
            "longitude": 139.7567,
            "cp": 353,
            "color": "#ea5549",
            "rent": 11.7,
            "time": 25
        },
        {
            "id": 304,
            "name": "浜川崎",
            "latitude": 35.510414,
            "longitude": 139.713484,
            "cp": 248,
            "color": "#ea5549",
            "rent": 7.1,
            "time": 56
        },
        {
            "id": 305,
            "name": "浜町",
            "latitude": 35.6884108373731,
            "longitude": 139.787933654151,
            "cp": 302,
            "color": "#ea5549",
            "rent": 11.3,
            "time": 16
        },
        {
            "id": 306,
            "name": "布田",
            "latitude": 35.6498499,
            "longitude": 139.5518261,
            "cp": 57,
            "color": "#98FB98",
            "rent": 6.78,
            "time": 21
        },
        {
            "id": 307,
            "name": "府中",
            "latitude": 35.672195,
            "longitude": 139.480469,
            "cp": 67,
            "color": "#98FB98",
            "rent": 6.6,
            "time": 23
        },
        {
            "id": 308,
            "name": "府中本町",
            "latitude": 35.666204,
            "longitude": 139.477203,
            "cp": 139,
            "color": "#ea5549",
            "rent": 6.9,
            "time": 33
        },
        {
            "id": 309,
            "name": "武蔵関",
            "latitude": 35.727547,
            "longitude": 139.576889,
            "cp": 109,
            "color": "#ea5549",
            "rent": 6.9,
            "time": 28
        },
        {
            "id": 310,
            "name": "武蔵境",
            "latitude": 35.70216,
            "longitude": 139.5447,
            "cp": 62,
            "color": "#98FB98",
            "rent": 6.5,
            "time": 23
        },
        {
            "id": 311,
            "name": "武蔵小金井",
            "latitude": 35.70135,
            "longitude": 139.5065,
            "cp": 83,
            "color": "#98FB98",
            "rent": 6,
            "time": 28
        },
        {
            "id": 312,
            "name": "武蔵小杉",
            "latitude": 35.5765749341184,
            "longitude": 139.659445071592,
            "cp": 98,
            "color": "#ea5549",
            "rent": 7.8,
            "time": 21
        },
        {
            "id": 313,
            "name": "武蔵中原",
            "latitude": 35.5806616208895,
            "longitude": 139.642101069912,
            "cp": 229,
            "color": "#ea5549",
            "rent": 8.5,
            "time": 35
        },
        {
            "id": 314,
            "name": "武蔵野台",
            "latitude": 35.6641996,
            "longitude": 139.5110719,
            "cp": 72,
            "color": "#98FB98",
            "rent": 5.9,
            "time": 27
        },
        {
            "id": 315,
            "name": "分倍河原",
            "latitude": 35.668557,
            "longitude": 139.468721,
            "cp": 163,
            "color": "#ea5549",
            "rent": 6.3,
            "time": 42
        },
        {
            "id": 316,
            "name": "平間",
            "latitude": 35.56104,
            "longitude": 139.671039,
            "cp": 227,
            "color": "#ea5549",
            "rent": 7.9,
            "time": 39
        },
        {
            "id": 317,
            "name": "平和台",
            "latitude": 35.757863,
            "longitude": 139.653762,
            "cp": 65,
            "color": "#98FB98",
            "rent": 7,
            "time": 21
        },
        {
            "id": 318,
            "name": "宝町",
            "latitude": 35.675461,
            "longitude": 139.771767,
            "cp": 314,
            "color": "#ea5549",
            "rent": 9.8,
            "time": 23
        },
        {
            "id": 319,
            "name": "方南町",
            "latitude": 35.683496,
            "longitude": 139.656498,
            "cp": 38,
            "color": "#98FB98",
            "rent": 8.42,
            "time": 11
        },
        {
            "id": 320,
            "name": "豊洲",
            "latitude": 35.654908,
            "longitude": 139.79621,
            "cp": 323,
            "color": "#ea5549",
            "rent": 9.7,
            "time": 25
        },
        {
            "id": 321,
            "name": "豊田",
            "latitude": 35.6595,
            "longitude": 139.3815,
            "cp": 102,
            "color": "#ea5549",
            "rent": 5.1,
            "time": 38
        },
        {
            "id": 322,
            "name": "豊島園",
            "latitude": 35.7419142116061,
            "longitude": 139.649146646261,
            "cp": 60,
            "color": "#98FB98",
            "rent": 7.1,
            "time": 20
        },
        {
            "id": 323,
            "name": "北綾瀬",
            "latitude": 35.7770135,
            "longitude": 139.8321012,
            "cp": 183,
            "color": "#ea5549",
            "rent": 7,
            "time": 40
        },
        {
            "id": 324,
            "name": "北浦和",
            "latitude": 35.872156,
            "longitude": 139.646196,
            "cp": 84,
            "color": "#98FB98",
            "rent": 6.2,
            "time": 27
        },
        {
            "id": 325,
            "name": "北千住",
            "latitude": 35.749412,
            "longitude": 139.805108,
            "cp": 126,
            "color": "#ea5549",
            "rent": 7.2,
            "time": 29
        },
        {
            "id": 326,
            "name": "本郷三丁目",
            "latitude": 35.7074415606801,
            "longitude": 139.760448848828,
            "cp": 273,
            "color": "#ea5549",
            "rent": 9.6,
            "time": 19
        },
        {
            "id": 327,
            "name": "本厚木",
            "latitude": 35.439366,
            "longitude": 139.364303,
            "cp": 181,
            "color": "#ea5549",
            "rent": 6,
            "time": 50
        },
        {
            "id": 328,
            "name": "本所吾妻橋",
            "latitude": 35.70858,
            "longitude": 139.804624,
            "cp": 309,
            "color": "#ea5549",
            "rent": 8.95,
            "time": 27
        },
        {
            "id": 329,
            "name": "本川越",
            "latitude": 35.914113,
            "longitude": 139.481377,
            "cp": 164,
            "color": "#ea5549",
            "rent": 5.6,
            "time": 50
        },
        {
            "id": 330,
            "name": "本八幡",
            "latitude": 35.7227774492546,
            "longitude": 139.926514446269,
            "cp": 193,
            "color": "#ea5549",
            "rent": 7,
            "time": 41
        },
        {
            "id": 331,
            "name": "本蓮沼",
            "latitude": 35.768782,
            "longitude": 139.702324,
            "cp": 144,
            "color": "#ea5549",
            "rent": 7.5,
            "time": 30
        },
        {
            "id": 332,
            "name": "麻布十番",
            "latitude": 35.6563901467552,
            "longitude": 139.73650493659,
            "cp": 301,
            "color": "#ea5549",
            "rent": 12.2,
            "time": 11
        },
        {
            "id": 333,
            "name": "明大前",
            "latitude": 35.6683488,
            "longitude": 139.6505541,
            "cp": 31,
            "color": "#98FB98",
            "rent": 8.3,
            "time": 10
        },
        {
            "id": 334,
            "name": "目黒",
            "latitude": 35.633998,
            "longitude": 139.715828,
            "cp": 261,
            "color": "#ea5549",
            "rent": 10.7,
            "time": 11
        },
        {
            "id": 335,
            "name": "目白",
            "latitude": 35.7212,
            "longitude": 139.7066,
            "cp": 182,
            "color": "#ea5549",
            "rent": 8.7,
            "time": 3
        },
        {
            "id": 336,
            "name": "門前仲町",
            "latitude": 35.6724674827531,
            "longitude": 139.794726411346,
            "cp": 289,
            "color": "#ea5549",
            "rent": 9.5,
            "time": 22
        },
        {
            "id": 337,
            "name": "野方",
            "latitude": 35.719658,
            "longitude": 139.652733,
            "cp": 80,
            "color": "#98FB98",
            "rent": 7.5,
            "time": 20
        },
        {
            "id": 338,
            "name": "矢向",
            "latitude": 35.538933,
            "longitude": 139.680422,
            "cp": 197,
            "color": "#ea5549",
            "rent": 7.4,
            "time": 38
        },
        {
            "id": 339,
            "name": "矢川",
            "latitude": 35.684962,
            "longitude": 139.432123,
            "cp": 140,
            "color": "#ea5549",
            "rent": 5.9,
            "time": 41
        },
        {
            "id": 340,
            "name": "有楽町",
            "latitude": 35.67507,
            "longitude": 139.7633,
            "cp": 283,
            "color": "#ea5549",
            "rent": 9.7,
            "time": 20
        },
        {
            "id": 341,
            "name": "用賀",
            "latitude": 35.626436,
            "longitude": 139.633928,
            "cp": 286,
            "color": "#ea5549",
            "rent": 9.2,
            "time": 23
        },
        {
            "id": 342,
            "name": "要町",
            "latitude": 35.73323,
            "longitude": 139.698715,
            "cp": 103,
            "color": "#ea5549",
            "rent": 8.12,
            "time": 21
        },
        {
            "id": 343,
            "name": "落合南長崎",
            "latitude": 35.723608,
            "longitude": 139.683303,
            "cp": 34,
            "color": "#98FB98",
            "rent": 7.9,
            "time": 14
        },
        {
            "id": 344,
            "name": "立川",
            "latitude": 35.6979,
            "longitude": 139.414,
            "cp": 112,
            "color": "#ea5549",
            "rent": 6.6,
            "time": 30
        },
        {
            "id": 345,
            "name": "溜池山王",
            "latitude": 35.673621,
            "longitude": 139.741419,
            "cp": 346,
            "color": "#ea5549",
            "rent": 13.7,
            "time": 14
        },
        {
            "id": 346,
            "name": "両国",
            "latitude": 35.6966186752156,
            "longitude": 139.797366606071,
            "cp": 284,
            "color": "#ea5549",
            "rent": 9.4,
            "time": 22
        },
        {
            "id": 347,
            "name": "練馬",
            "latitude": 35.73782,
            "longitude": 139.653566,
            "cp": 52,
            "color": "#98FB98",
            "rent": 7.6,
            "time": 17
        },
        {
            "id": 348,
            "name": "練馬春日町",
            "latitude": 35.751135,
            "longitude": 139.641058,
            "cp": 71,
            "color": "#98FB98",
            "rent": 6.9,
            "time": 22
        },
        {
            "id": 349,
            "name": "蓮根",
            "latitude": 35.784174,
            "longitude": 139.67904,
            "cp": 172,
            "color": "#ea5549",
            "rent": 7.3,
            "time": 36
        },
        {
            "id": 350,
            "name": "六本木",
            "latitude": 35.6639901963109,
            "longitude": 139.731414795387,
            "cp": 307,
            "color": "#ea5549",
            "rent": 12.4,
            "time": 9
        },
        {
            "id": 351,
            "name": "和光市",
            "latitude": 35.788515,
            "longitude": 139.612343,
            "cp": 42,
            "color": "#98FB98",
            "rent": 6.4,
            "time": 21
        },
        {
            "id": 352,
            "name": "和泉多摩川",
            "latitude": 35.627324,
            "longitude": 139.573709,
            "cp": 97,
            "color": "#ea5549",
            "rent": 6,
            "time": 30
        },
        {
            "id": 353,
            "name": "蕨",
            "latitude": 35.828148,
            "longitude": 139.690443,
            "cp": 93,
            "color": "#ea5549",
            "rent": 6.6,
            "time": 26
        },
        {
            "id": 354,
            "name": "茗荷谷",
            "latitude": 35.717305,
            "longitude": 139.736734,
            "cp": 236,
            "color": "#ea5549",
            "rent": 9.3,
            "time": 14
        }
    ]
}
