{
	"locations": [
		{
			"id": 1,
			"name": "栢山",
			"latitude": 35.310357,
			"longitude": 139.142707,
			"rent": 3.5,
			"color": "#0000ff"
		},
		{
			"id": 2,
			"name": "渋沢",
			"latitude": 35.374168,
			"longitude": 139.18451,
			"rent": 3.5,
			"color": "#0000ff"
		},
		{
			"id": 3,
			"name": "東海大学前",
			"latitude": 35.373151,
			"longitude": 139.271236,
			"rent": 4.2,
			"color": "#6495ed"
		},
		{
			"id": 4,
			"name": "京王堀之内",
			"latitude": 35.62443,
			"longitude": 139.400299,
			"rent": 4.3,
			"color": "#6495ed"
		},
		{
			"id": 5,
			"name": "秦野",
			"latitude": 35.370175,
			"longitude": 139.225868,
			"rent": 4.3,
			"color": "#6495ed"
		},
		{
			"id": 6,
			"name": "南大沢",
			"latitude": 35.6140699,
			"longitude": 139.3797737,
			"rent": 4.3,
			"color": "#6495ed"
		},
		{
			"id": 7,
			"name": "長沼",
			"latitude": 35.6428043,
			"longitude": 139.3660475,
			"rent": 4.35,
			"color": "#6495ed"
		},
		{
			"id": 8,
			"name": "鶴巻温泉",
			"latitude": 35.381131,
			"longitude": 139.277813,
			"rent": 4.4,
			"color": "#6495ed"
		},
		{
			"id": 9,
			"name": "多摩境",
			"latitude": 35.601904,
			"longitude": 139.367303,
			"rent": 4.5,
			"color": "#6495ed"
		},
		{
			"id": 10,
			"name": "百草園",
			"latitude": 35.657372,
			"longitude": 139.431351,
			"rent": 4.5,
			"color": "#6495ed"
		},
		{
			"id": 11,
			"name": "高幡不動",
			"latitude": 35.6621387,
			"longitude": 139.4132073,
			"rent": 4.6,
			"color": "#6495ed"
		},
		{
			"id": 12,
			"name": "高尾",
			"latitude": 35.64223,
			"longitude": 139.2818,
			"rent": 4.6,
			"color": "#6495ed"
		},
		{
			"id": 13,
			"name": "足柄",
			"latitude": 35.271799,
			"longitude": 139.154381,
			"rent": 4.6,
			"color": "#6495ed"
		},
		{
			"id": 14,
			"name": "京王多摩センター",
			"latitude": 35.6252061189993,
			"longitude": 139.424168863333,
			"rent": 4.7,
			"color": "#6495ed"
		},
		{
			"id": 15,
			"name": "聖蹟桜ヶ丘",
			"latitude": 35.65079,
			"longitude": 139.446933,
			"rent": 4.7,
			"color": "#6495ed"
		},
		{
			"id": 16,
			"name": "南平",
			"latitude": 35.65462,
			"longitude": 139.391944,
			"rent": 4.7,
			"color": "#6495ed"
		},
		{
			"id": 17,
			"name": "平山城址公園",
			"latitude": 35.6473373,
			"longitude": 139.3799404,
			"rent": 4.7,
			"color": "#6495ed"
		},
		{
			"id": 18,
			"name": "京王永山",
			"latitude": 35.6302365,
			"longitude": 139.4482672,
			"rent": 4.8,
			"color": "#6495ed"
		},
		{
			"id": 19,
			"name": "橋本",
			"latitude": 35.5949367199774,
			"longitude": 139.344929996877,
			"rent": 4.8,
			"color": "#6495ed"
		},
		{
			"id": 20,
			"name": "狭山市",
			"latitude": 35.856936,
			"longitude": 139.413015,
			"rent": 4.8,
			"color": "#6495ed"
		},
		{
			"id": 21,
			"name": "東村山",
			"latitude": 35.760471,
			"longitude": 139.46585,
			"rent": 4.8,
			"color": "#6495ed"
		},
		{
			"id": 22,
			"name": "小田相模原",
			"latitude": 35.515134,
			"longitude": 139.422596,
			"rent": 4.85,
			"color": "#6495ed"
		},
		{
			"id": 23,
			"name": "伊勢原",
			"latitude": 35.396033,
			"longitude": 139.313504,
			"rent": 4.9,
			"color": "#6495ed"
		},
		{
			"id": 24,
			"name": "新狭山",
			"latitude": 35.873993,
			"longitude": 139.433499,
			"rent": 4.9,
			"color": "#6495ed"
		},
		{
			"id": 25,
			"name": "螢田",
			"latitude": 35.284922,
			"longitude": 139.152016,
			"rent": 4.9,
			"color": "#6495ed"
		},
		{
			"id": 26,
			"name": "相模原",
			"latitude": 35.58145,
			"longitude": 139.3707,
			"rent": 5,
			"color": "#1e90ff"
		},
		{
			"id": 27,
			"name": "淵野辺",
			"latitude": 35.56876,
			"longitude": 139.3951,
			"rent": 5,
			"color": "#1e90ff"
		},
		{
			"id": 28,
			"name": "矢部",
			"latitude": 35.57307,
			"longitude": 139.3868,
			"rent": 5,
			"color": "#1e90ff"
		},
		{
			"id": 29,
			"name": "すずかけ台",
			"latitude": 35.516963,
			"longitude": 139.481467,
			"rent": 5.1,
			"color": "#1e90ff"
		},
		{
			"id": 30,
			"name": "つきみ野",
			"latitude": 35.510335,
			"longitude": 139.458029,
			"rent": 5.1,
			"color": "#1e90ff"
		},
		{
			"id": 31,
			"name": "稲城",
			"latitude": 35.636224,
			"longitude": 139.5003491,
			"rent": 5.1,
			"color": "#1e90ff"
		},
		{
			"id": 32,
			"name": "京王よみうりランド",
			"latitude": 35.6329726,
			"longitude": 139.517379,
			"rent": 5.1,
			"color": "#1e90ff"
		},
		{
			"id": 33,
			"name": "相原",
			"latitude": 35.60687,
			"longitude": 139.3317,
			"rent": 5.1,
			"color": "#1e90ff"
		},
		{
			"id": 34,
			"name": "鶴川",
			"latitude": 35.58313,
			"longitude": 139.480895,
			"rent": 5.1,
			"color": "#1e90ff"
		},
		{
			"id": 35,
			"name": "南大塚",
			"latitude": 35.889805,
			"longitude": 139.454314,
			"rent": 5.1,
			"color": "#1e90ff"
		},
		{
			"id": 36,
			"name": "豊田",
			"latitude": 35.6595,
			"longitude": 139.3815,
			"rent": 5.1,
			"color": "#1e90ff"
		},
		{
			"id": 37,
			"name": "座間",
			"latitude": 35.480691,
			"longitude": 139.399932,
			"rent": 5.2,
			"color": "#1e90ff"
		},
		{
			"id": 38,
			"name": "若葉台",
			"latitude": 35.619238,
			"longitude": 139.472405,
			"rent": 5.2,
			"color": "#1e90ff"
		},
		{
			"id": 39,
			"name": "所沢",
			"latitude": 35.786201,
			"longitude": 139.473916,
			"rent": 5.2,
			"color": "#1e90ff"
		},
		{
			"id": 40,
			"name": "西千葉",
			"latitude": 35.62258,
			"longitude": 140.1033,
			"rent": 5.2,
			"color": "#1e90ff"
		},
		{
			"id": 41,
			"name": "相武台前",
			"latitude": 35.499147,
			"longitude": 139.408401,
			"rent": 5.2,
			"color": "#1e90ff"
		},
		{
			"id": 42,
			"name": "中河原",
			"latitude": 35.6595833,
			"longitude": 139.4578965,
			"rent": 5.2,
			"color": "#1e90ff"
		},
		{
			"id": 43,
			"name": "南町田グランベリーパーク",
			"latitude": 35.511502,
			"longitude": 139.470318,
			"rent": 5.2,
			"color": "#1e90ff"
		},
		{
			"id": 44,
			"name": "西八王子",
			"latitude": 35.65678,
			"longitude": 139.3125,
			"rent": 5.3,
			"color": "#1e90ff"
		},
		{
			"id": 45,
			"name": "中央林間",
			"latitude": 35.5078841060272,
			"longitude": 139.444117122329,
			"rent": 5.3,
			"color": "#1e90ff"
		},
		{
			"id": 46,
			"name": "北野",
			"latitude": 35.6443991,
			"longitude": 139.3544968,
			"rent": 5.3,
			"color": "#1e90ff"
		},
		{
			"id": 47,
			"name": "久米川",
			"latitude": 35.750022,
			"longitude": 139.471995,
			"rent": 5.4,
			"color": "#1e90ff"
		},
		{
			"id": 48,
			"name": "古淵",
			"latitude": 35.55597,
			"longitude": 139.4193,
			"rent": 5.4,
			"color": "#1e90ff"
		},
		{
			"id": 49,
			"name": "新検見川",
			"latitude": 35.65183,
			"longitude": 140.073,
			"rent": 5.4,
			"color": "#1e90ff"
		},
		{
			"id": 50,
			"name": "読売ランド前",
			"latitude": 35.614632,
			"longitude": 139.52825,
			"rent": 5.4,
			"color": "#1e90ff"
		},
		{
			"id": 51,
			"name": "日野",
			"latitude": 35.67925,
			"longitude": 139.394,
			"rent": 5.4,
			"color": "#1e90ff"
		},
		{
			"id": 52,
			"name": "入曽",
			"latitude": 35.832486,
			"longitude": 139.427293,
			"rent": 5.4,
			"color": "#1e90ff"
		},
		{
			"id": 53,
			"name": "白楽",
			"latitude": 35.4897,
			"longitude": 139.6279,
			"rent": 5.4,
			"color": "#1e90ff"
		},
		{
			"id": 54,
			"name": "百合ヶ丘",
			"latitude": 35.608963,
			"longitude": 139.515901,
			"rent": 5.4,
			"color": "#1e90ff"
		},
		{
			"id": 55,
			"name": "片倉",
			"latitude": 35.63969,
			"longitude": 139.3412,
			"rent": 5.4,
			"color": "#1e90ff"
		},
		{
			"id": 56,
			"name": "京王稲田堤",
			"latitude": 35.6337511,
			"longitude": 139.5312067,
			"rent": 5.5,
			"color": "#1e90ff"
		},
		{
			"id": 57,
			"name": "玉川学園前",
			"latitude": 35.56333,
			"longitude": 139.463333,
			"rent": 5.5,
			"color": "#1e90ff"
		},
		{
			"id": 58,
			"name": "十日市場",
			"latitude": 35.5263,
			"longitude": 139.5166,
			"rent": 5.5,
			"color": "#1e90ff"
		},
		{
			"id": 59,
			"name": "新所沢",
			"latitude": 35.806767,
			"longitude": 139.456111,
			"rent": 5.5,
			"color": "#1e90ff"
		},
		{
			"id": 60,
			"name": "生田",
			"latitude": 35.615015,
			"longitude": 139.542215,
			"rent": 5.5,
			"color": "#1e90ff"
		},
		{
			"id": 61,
			"name": "愛甲石田",
			"latitude": 35.417648,
			"longitude": 139.343945,
			"rent": 5.6,
			"color": "#1e90ff"
		},
		{
			"id": 62,
			"name": "稲毛",
			"latitude": 35.63743,
			"longitude": 140.0924,
			"rent": 5.6,
			"color": "#1e90ff"
		},
		{
			"id": 63,
			"name": "航空公園",
			"latitude": 35.79841,
			"longitude": 139.465699,
			"rent": 5.6,
			"color": "#1e90ff"
		},
		{
			"id": 64,
			"name": "本川越",
			"latitude": 35.914113,
			"longitude": 139.481377,
			"rent": 5.6,
			"color": "#1e90ff"
		},
		{
			"id": 65,
			"name": "国立",
			"latitude": 35.699,
			"longitude": 139.4464,
			"rent": 5.7,
			"color": "#1e90ff"
		},
		{
			"id": 66,
			"name": "富水",
			"latitude": 35.296356,
			"longitude": 139.145464,
			"rent": 5.7,
			"color": "#1e90ff"
		},
		{
			"id": 67,
			"name": "幕張",
			"latitude": 35.65939,
			"longitude": 140.0579,
			"rent": 5.7,
			"color": "#1e90ff"
		},
		{
			"id": 68,
			"name": "花小金井",
			"latitude": 35.726129,
			"longitude": 139.513228,
			"rent": 5.8,
			"color": "#1e90ff"
		},
		{
			"id": 69,
			"name": "海老名",
			"latitude": 35.452703,
			"longitude": 139.390906,
			"rent": 5.8,
			"color": "#1e90ff"
		},
		{
			"id": 70,
			"name": "小平",
			"latitude": 35.737024,
			"longitude": 139.488294,
			"rent": 5.8,
			"color": "#1e90ff"
		},
		{
			"id": 71,
			"name": "西調布",
			"latitude": 35.6570844,
			"longitude": 139.5300797,
			"rent": 5.8,
			"color": "#1e90ff"
		},
		{
			"id": 72,
			"name": "相模大野",
			"latitude": 35.532003,
			"longitude": 139.437627,
			"rent": 5.8,
			"color": "#1e90ff"
		},
		{
			"id": 73,
			"name": "多磨霊園",
			"latitude": 35.6660632,
			"longitude": 139.5030888,
			"rent": 5.8,
			"color": "#1e90ff"
		},
		{
			"id": 74,
			"name": "田無",
			"latitude": 35.727366,
			"longitude": 139.539253,
			"rent": 5.8,
			"color": "#1e90ff"
		},
		{
			"id": 75,
			"name": "飛田給",
			"latitude": 35.6600815,
			"longitude": 139.5235242,
			"rent": 5.8,
			"color": "#1e90ff"
		},
		{
			"id": 76,
			"name": "幕張本郷",
			"latitude": 35.6728,
			"longitude": 140.0422,
			"rent": 5.8,
			"color": "#1e90ff"
		},
		{
			"id": 77,
			"name": "矢野口",
			"latitude": 35.641674,
			"longitude": 139.520457,
			"rent": 5.8,
			"color": "#1e90ff"
		},
		{
			"id": 78,
			"name": "新杉田",
			"latitude": 35.385877,
			"longitude": 139.620533,
			"rent": 5.85,
			"color": "#1e90ff"
		},
		{
			"id": 79,
			"name": "柿生",
			"latitude": 35.589831,
			"longitude": 139.497945,
			"rent": 5.9,
			"color": "#1e90ff"
		},
		{
			"id": 80,
			"name": "八王子",
			"latitude": 35.65564,
			"longitude": 139.339,
			"rent": 5.9,
			"color": "#1e90ff"
		},
		{
			"id": 81,
			"name": "武蔵野台",
			"latitude": 35.6641996,
			"longitude": 139.5110719,
			"rent": 5.9,
			"color": "#1e90ff"
		},
		{
			"id": 82,
			"name": "矢川",
			"latitude": 35.684962,
			"longitude": 139.432123,
			"rent": 5.9,
			"color": "#1e90ff"
		},
		{
			"id": 83,
			"name": "稲城長沼",
			"latitude": 35.6444878651794,
			"longitude": 139.501989050768,
			"rent": 6,
			"color": "#00bfff"
		},
		{
			"id": 84,
			"name": "国分寺",
			"latitude": 35.70026,
			"longitude": 139.4803,
			"rent": 6,
			"color": "#00bfff"
		},
		{
			"id": 85,
			"name": "西国分寺",
			"latitude": 35.69977,
			"longitude": 139.4657,
			"rent": 6,
			"color": "#00bfff"
		},
		{
			"id": 86,
			"name": "西武柳沢",
			"latitude": 35.728638,
			"longitude": 139.55261,
			"rent": 6,
			"color": "#00bfff"
		},
		{
			"id": 87,
			"name": "長津田",
			"latitude": 35.5316836756798,
			"longitude": 139.495262678246,
			"rent": 6,
			"color": "#00bfff"
		},
		{
			"id": 88,
			"name": "津田沼",
			"latitude": 35.69123,
			"longitude": 140.0205,
			"rent": 6,
			"color": "#00bfff"
		},
		{
			"id": 89,
			"name": "南浦和",
			"latitude": 35.847681,
			"longitude": 139.66915,
			"rent": 6,
			"color": "#00bfff"
		},
		{
			"id": 90,
			"name": "武蔵小金井",
			"latitude": 35.70135,
			"longitude": 139.5065,
			"rent": 6,
			"color": "#00bfff"
		},
		{
			"id": 91,
			"name": "本厚木",
			"latitude": 35.439366,
			"longitude": 139.364303,
			"rent": 6,
			"color": "#00bfff"
		},
		{
			"id": 92,
			"name": "和泉多摩川",
			"latitude": 35.627324,
			"longitude": 139.573709,
			"rent": 6,
			"color": "#00bfff"
		},
		{
			"id": 93,
			"name": "京王多摩川",
			"latitude": 35.644804,
			"longitude": 139.537042,
			"rent": 6.08,
			"color": "#00bfff"
		},
		{
			"id": 94,
			"name": "京王八王子",
			"latitude": 35.657886,
			"longitude": 139.343137,
			"rent": 6.1,
			"color": "#00bfff"
		},
		{
			"id": 95,
			"name": "向ヶ丘遊園",
			"latitude": 35.617241,
			"longitude": 139.564758,
			"rent": 6.1,
			"color": "#00bfff"
		},
		{
			"id": 96,
			"name": "狛江",
			"latitude": 35.63217,
			"longitude": 139.577413,
			"rent": 6.1,
			"color": "#00bfff"
		},
		{
			"id": 97,
			"name": "新百合ヶ丘",
			"latitude": 35.603805,
			"longitude": 139.507605,
			"rent": 6.1,
			"color": "#00bfff"
		},
		{
			"id": 98,
			"name": "中野島",
			"latitude": 35.630135,
			"longitude": 139.5501,
			"rent": 6.1,
			"color": "#00bfff"
		},
		{
			"id": 99,
			"name": "登戸",
			"latitude": 35.6207850319793,
			"longitude": 139.569301432929,
			"rent": 6.1,
			"color": "#00bfff"
		},
		{
			"id": 100,
			"name": "八王子みなみ野",
			"latitude": 35.63136,
			"longitude": 139.331,
			"rent": 6.1,
			"color": "#00bfff"
		},
		{
			"id": 101,
			"name": "洋光台",
			"latitude": 35.378713,
			"longitude": 139.596505,
			"rent": 6.1,
			"color": "#00bfff"
		},
		{
			"id": 102,
			"name": "厚木",
			"latitude": 35.4431256246062,
			"longitude": 139.378191484138,
			"rent": 6.15,
			"color": "#00bfff"
		},
		{
			"id": 103,
			"name": "つくし野",
			"latitude": 35.527625,
			"longitude": 139.48512,
			"rent": 6.2,
			"color": "#00bfff"
		},
		{
			"id": 104,
			"name": "浦和",
			"latitude": 35.858482,
			"longitude": 139.657087,
			"rent": 6.2,
			"color": "#00bfff"
		},
		{
			"id": 105,
			"name": "山手",
			"latitude": 35.427249,
			"longitude": 139.646206,
			"rent": 6.2,
			"color": "#00bfff"
		},
		{
			"id": 106,
			"name": "東小金井",
			"latitude": 35.70174,
			"longitude": 139.5248,
			"rent": 6.2,
			"color": "#00bfff"
		},
		{
			"id": 107,
			"name": "東船橋",
			"latitude": 35.69981,
			"longitude": 140.0043,
			"rent": 6.2,
			"color": "#00bfff"
		},
		{
			"id": 108,
			"name": "東白楽",
			"latitude": 35.48343,
			"longitude": 139.6294,
			"rent": 6.2,
			"color": "#00bfff"
		},
		{
			"id": 109,
			"name": "北浦和",
			"latitude": 35.872156,
			"longitude": 139.646196,
			"rent": 6.2,
			"color": "#00bfff"
		},
		{
			"id": 110,
			"name": "港南台",
			"latitude": 35.37528,
			"longitude": 139.576712,
			"rent": 6.25,
			"color": "#00bfff"
		},
		{
			"id": 111,
			"name": "稲田堤",
			"latitude": 35.633645,
			"longitude": 139.535262,
			"rent": 6.3,
			"color": "#00bfff"
		},
		{
			"id": 112,
			"name": "宿河原",
			"latitude": 35.6153475953711,
			"longitude": 139.579728876706,
			"rent": 6.3,
			"color": "#00bfff"
		},
		{
			"id": 113,
			"name": "千葉",
			"latitude": 35.61286,
			"longitude": 140.1143,
			"rent": 6.3,
			"color": "#00bfff"
		},
		{
			"id": 114,
			"name": "大口",
			"latitude": 35.49216,
			"longitude": 139.6462,
			"rent": 6.3,
			"color": "#00bfff"
		},
		{
			"id": 115,
			"name": "大船",
			"latitude": 35.353435,
			"longitude": 139.531124,
			"rent": 6.3,
			"color": "#00bfff"
		},
		{
			"id": 116,
			"name": "調布",
			"latitude": 35.651788,
			"longitude": 139.5447823,
			"rent": 6.3,
			"color": "#00bfff"
		},
		{
			"id": 117,
			"name": "東府中",
			"latitude": 35.6688656,
			"longitude": 139.4952598,
			"rent": 6.3,
			"color": "#00bfff"
		},
		{
			"id": 118,
			"name": "分倍河原",
			"latitude": 35.6685677,
			"longitude": 139.46874,
			"rent": 6.3,
			"color": "#00bfff"
		},
		{
			"id": 119,
			"name": "本郷台",
			"latitude": 35.367436,
			"longitude": 139.550281,
			"rent": 6.3,
			"color": "#00bfff"
		},
		{
			"id": 120,
			"name": "与野",
			"latitude": 35.884393,
			"longitude": 139.639085,
			"rent": 6.3,
			"color": "#00bfff"
		},
		{
			"id": 121,
			"name": "磯子",
			"latitude": 35.399881,
			"longitude": 139.617916,
			"rent": 6.4,
			"color": "#00bfff"
		},
		{
			"id": 122,
			"name": "鴨居",
			"latitude": 35.51087,
			"longitude": 139.5671,
			"rent": 6.4,
			"color": "#00bfff"
		},
		{
			"id": 123,
			"name": "原木中山",
			"latitude": 35.7032,
			"longitude": 139.941876,
			"rent": 6.4,
			"color": "#00bfff"
		},
		{
			"id": 124,
			"name": "東伏見",
			"latitude": 35.728666,
			"longitude": 139.564232,
			"rent": 6.4,
			"color": "#00bfff"
		},
		{
			"id": 125,
			"name": "和光市",
			"latitude": 35.788515,
			"longitude": 139.612343,
			"rent": 6.4,
			"color": "#00bfff"
		},
		{
			"id": 126,
			"name": "さいたま新都心",
			"latitude": 35.893867,
			"longitude": 139.633587,
			"rent": 6.5,
			"color": "#00bfff"
		},
		{
			"id": 127,
			"name": "下総中山",
			"latitude": 35.71428,
			"longitude": 139.9431,
			"rent": 6.5,
			"color": "#00bfff"
		},
		{
			"id": 128,
			"name": "葛西",
			"latitude": 35.663523,
			"longitude": 139.872694,
			"rent": 6.5,
			"color": "#00bfff"
		},
		{
			"id": 129,
			"name": "喜多見",
			"latitude": 35.636692,
			"longitude": 139.587098,
			"rent": 6.5,
			"color": "#00bfff"
		},
		{
			"id": 130,
			"name": "綱島",
			"latitude": 35.53699,
			"longitude": 139.635,
			"rent": 6.5,
			"color": "#00bfff"
		},
		{
			"id": 131,
			"name": "市が尾",
			"latitude": 35.551477,
			"longitude": 139.541388,
			"rent": 6.5,
			"color": "#00bfff"
		},
		{
			"id": 132,
			"name": "柴崎",
			"latitude": 35.6540817,
			"longitude": 139.5666085,
			"rent": 6.5,
			"color": "#00bfff"
		},
		{
			"id": 133,
			"name": "新子安",
			"latitude": 35.487106,
			"longitude": 139.65554,
			"rent": 6.5,
			"color": "#00bfff"
		},
		{
			"id": 134,
			"name": "西葛西",
			"latitude": 35.664528,
			"longitude": 139.85937,
			"rent": 6.5,
			"color": "#00bfff"
		},
		{
			"id": 135,
			"name": "船堀",
			"latitude": 35.683732,
			"longitude": 139.864333,
			"rent": 6.5,
			"color": "#00bfff"
		},
		{
			"id": 136,
			"name": "大宮",
			"latitude": 35.906295,
			"longitude": 139.623999,
			"rent": 6.5,
			"color": "#00bfff"
		},
		{
			"id": 137,
			"name": "中山",
			"latitude": 35.51483,
			"longitude": 139.5402,
			"rent": 6.5,
			"color": "#00bfff"
		},
		{
			"id": 138,
			"name": "町田",
			"latitude": 35.541975372676,
			"longitude": 139.445421095006,
			"rent": 6.5,
			"color": "#00bfff"
		},
		{
			"id": 139,
			"name": "南多摩",
			"latitude": 35.649093,
			"longitude": 139.489284,
			"rent": 6.5,
			"color": "#00bfff"
		},
		{
			"id": 140,
			"name": "武蔵境",
			"latitude": 35.70216,
			"longitude": 139.5447,
			"rent": 6.5,
			"color": "#00bfff"
		},
		{
			"id": 141,
			"name": "妙典",
			"latitude": 35.691613,
			"longitude": 139.925017,
			"rent": 6.5,
			"color": "#00bfff"
		},
		{
			"id": 142,
			"name": "妙蓮寺",
			"latitude": 35.49847,
			"longitude": 139.6331,
			"rent": 6.5,
			"color": "#00bfff"
		},
		{
			"id": 143,
			"name": "西国立",
			"latitude": 35.6934411454608,
			"longitude": 139.424058012664,
			"rent": 6.55,
			"color": "#00bfff"
		},
		{
			"id": 144,
			"name": "江田",
			"latitude": 35.558646,
			"longitude": 139.551509,
			"rent": 6.58,
			"color": "#00bfff"
		},
		{
			"id": 145,
			"name": "久地",
			"latitude": 35.61056,
			"longitude": 139.592539,
			"rent": 6.6,
			"color": "#00bfff"
		},
		{
			"id": 146,
			"name": "行徳",
			"latitude": 35.682558,
			"longitude": 139.914235,
			"rent": 6.6,
			"color": "#00bfff"
		},
		{
			"id": 147,
			"name": "国領",
			"latitude": 35.6501355,
			"longitude": 139.5583464,
			"rent": 6.6,
			"color": "#00bfff"
		},
		{
			"id": 148,
			"name": "小岩",
			"latitude": 35.73296,
			"longitude": 139.8817,
			"rent": 6.6,
			"color": "#00bfff"
		},
		{
			"id": 149,
			"name": "小田原",
			"latitude": 35.2563636441241,
			"longitude": 139.155380171723,
			"rent": 6.6,
			"color": "#00bfff"
		},
		{
			"id": 150,
			"name": "成城学園前",
			"latitude": 35.640053,
			"longitude": 139.598741,
			"rent": 6.6,
			"color": "#00bfff"
		},
		{
			"id": 151,
			"name": "船橋",
			"latitude": 35.70174,
			"longitude": 139.9852,
			"rent": 6.6,
			"color": "#00bfff"
		},
		{
			"id": 152,
			"name": "谷保",
			"latitude": 35.681424,
			"longitude": 139.446591,
			"rent": 6.6,
			"color": "#00bfff"
		},
		{
			"id": 153,
			"name": "府中",
			"latitude": 35.672195,
			"longitude": 139.480469,
			"rent": 6.6,
			"color": "#00bfff"
		},
		{
			"id": 154,
			"name": "立川",
			"latitude": 35.6979,
			"longitude": 139.414,
			"rent": 6.6,
			"color": "#00bfff"
		},
		{
			"id": 155,
			"name": "蕨",
			"latitude": 35.828148,
			"longitude": 139.690443,
			"rent": 6.6,
			"color": "#00bfff"
		},
		{
			"id": 156,
			"name": "たまプラーザ",
			"latitude": 35.577427,
			"longitude": 139.558447,
			"rent": 6.7,
			"color": "#00bfff"
		},
		{
			"id": 157,
			"name": "菊名",
			"latitude": 35.50964,
			"longitude": 139.6307,
			"rent": 6.7,
			"color": "#00bfff"
		},
		{
			"id": 158,
			"name": "光が丘",
			"latitude": 35.758526,
			"longitude": 139.628603,
			"rent": 6.7,
			"color": "#00bfff"
		},
		{
			"id": 159,
			"name": "根岸",
			"latitude": 35.415795,
			"longitude": 139.635057,
			"rent": 6.7,
			"color": "#00bfff"
		},
		{
			"id": 160,
			"name": "新小岩",
			"latitude": 35.71679,
			"longitude": 139.8583,
			"rent": 6.7,
			"color": "#00bfff"
		},
		{
			"id": 161,
			"name": "西船橋",
			"latitude": 35.707452,
			"longitude": 139.959097,
			"rent": 6.7,
			"color": "#00bfff"
		},
		{
			"id": 162,
			"name": "大倉山",
			"latitude": 35.52202,
			"longitude": 139.6299,
			"rent": 6.7,
			"color": "#00bfff"
		},
		{
			"id": 163,
			"name": "南行徳",
			"latitude": 35.672687,
			"longitude": 139.902311,
			"rent": 6.7,
			"color": "#00bfff"
		},
		{
			"id": 164,
			"name": "布田",
			"latitude": 35.6498499,
			"longitude": 139.5518261,
			"rent": 6.78,
			"color": "#00bfff"
		},
		{
			"id": 165,
			"name": "あざみ野",
			"latitude": 35.568717,
			"longitude": 139.553556,
			"rent": 6.8,
			"color": "#00bfff"
		},
		{
			"id": 166,
			"name": "つつじヶ丘",
			"latitude": 35.6579842,
			"longitude": 139.5750124,
			"rent": 6.8,
			"color": "#00bfff"
		},
		{
			"id": 167,
			"name": "浦安",
			"latitude": 35.665743,
			"longitude": 139.892937,
			"rent": 6.8,
			"color": "#00bfff"
		},
		{
			"id": 168,
			"name": "宮前平",
			"latitude": 35.584945,
			"longitude": 139.581919,
			"rent": 6.8,
			"color": "#00bfff"
		},
		{
			"id": 169,
			"name": "鷺沼",
			"latitude": 35.579579,
			"longitude": 139.573018,
			"rent": 6.8,
			"color": "#00bfff"
		},
		{
			"id": 170,
			"name": "市川",
			"latitude": 35.72928,
			"longitude": 139.9078,
			"rent": 6.8,
			"color": "#00bfff"
		},
		{
			"id": 171,
			"name": "篠崎",
			"latitude": 35.706017,
			"longitude": 139.903698,
			"rent": 6.8,
			"color": "#00bfff"
		},
		{
			"id": 172,
			"name": "祖師ヶ谷大蔵",
			"latitude": 35.6433164,
			"longitude": 139.6095789,
			"rent": 6.8,
			"color": "#00bfff"
		},
		{
			"id": 173,
			"name": "日吉",
			"latitude": 35.55306,
			"longitude": 139.6468,
			"rent": 6.8,
			"color": "#00bfff"
		},
		{
			"id": 174,
			"name": "宮崎台",
			"latitude": 35.587325,
			"longitude": 139.591349,
			"rent": 6.85,
			"color": "#00bfff"
		},
		{
			"id": 175,
			"name": "西川口",
			"latitude": 35.815725,
			"longitude": 139.704364,
			"rent": 6.85,
			"color": "#00bfff"
		},
		{
			"id": 176,
			"name": "上井草",
			"latitude": 35.72512,
			"longitude": 139.603568,
			"rent": 6.9,
			"color": "#00bfff"
		},
		{
			"id": 177,
			"name": "上石神井",
			"latitude": 35.726245,
			"longitude": 139.59208,
			"rent": 6.9,
			"color": "#00bfff"
		},
		{
			"id": 178,
			"name": "瑞江",
			"latitude": 35.693318,
			"longitude": 139.89761,
			"rent": 6.9,
			"color": "#00bfff"
		},
		{
			"id": 179,
			"name": "西高島平",
			"latitude": 35.791938,
			"longitude": 139.64589,
			"rent": 6.9,
			"color": "#00bfff"
		},
		{
			"id": 180,
			"name": "西府",
			"latitude": 35.670967,
			"longitude": 139.457399,
			"rent": 6.9,
			"color": "#00bfff"
		},
		{
			"id": 181,
			"name": "仙川",
			"latitude": 35.662307,
			"longitude": 139.584897,
			"rent": 6.9,
			"color": "#00bfff"
		},
		{
			"id": 182,
			"name": "川口",
			"latitude": 35.801922,
			"longitude": 139.717583,
			"rent": 6.9,
			"color": "#00bfff"
		},
		{
			"id": 183,
			"name": "地下鉄赤塚",
			"latitude": 35.77053,
			"longitude": 139.644543,
			"rent": 6.9,
			"color": "#00bfff"
		},
		{
			"id": 184,
			"name": "鶴見",
			"latitude": 35.508565,
			"longitude": 139.676018,
			"rent": 6.9,
			"color": "#00bfff"
		},
		{
			"id": 185,
			"name": "田奈",
			"latitude": 35.536177,
			"longitude": 139.504835,
			"rent": 6.9,
			"color": "#00bfff"
		},
		{
			"id": 186,
			"name": "府中本町",
			"latitude": 35.666204,
			"longitude": 139.477203,
			"rent": 6.9,
			"color": "#00bfff"
		},
		{
			"id": 187,
			"name": "武蔵関",
			"latitude": 35.727547,
			"longitude": 139.576889,
			"rent": 6.9,
			"color": "#00bfff"
		},
		{
			"id": 188,
			"name": "練馬春日町",
			"latitude": 35.751135,
			"longitude": 139.641058,
			"rent": 6.9,
			"color": "#00bfff"
		},
		{
			"id": 189,
			"name": "井荻",
			"latitude": 35.724546,
			"longitude": 139.614661,
			"rent": 6.99,
			"color": "#40e0d0"
		},
		{
			"id": 190,
			"name": "綾瀬",
			"latitude": 35.762214,
			"longitude": 139.824914,
			"rent": 7,
			"color": "#40e0d0"
		},
		{
			"id": 191,
			"name": "一之江",
			"latitude": 35.686055,
			"longitude": 139.882934,
			"rent": 7,
			"color": "#40e0d0"
		},
		{
			"id": 192,
			"name": "下井草",
			"latitude": 35.723955,
			"longitude": 139.624327,
			"rent": 7,
			"color": "#40e0d0"
		},
		{
			"id": 193,
			"name": "豪徳寺",
			"latitude": 35.6537321924523,
			"longitude": 139.647326107369,
			"rent": 7,
			"color": "#40e0d0"
		},
		{
			"id": 194,
			"name": "鷺ノ宮",
			"latitude": 35.722605,
			"longitude": 139.63892,
			"rent": 7,
			"color": "#40e0d0"
		},
		{
			"id": 195,
			"name": "小田栄",
			"latitude": 35.5145,
			"longitude": 139.704944,
			"rent": 7,
			"color": "#40e0d0"
		},
		{
			"id": 196,
			"name": "地下鉄成増",
			"latitude": 35.776557,
			"longitude": 139.631497,
			"rent": 7,
			"color": "#40e0d0"
		},
		{
			"id": 197,
			"name": "津田山",
			"latitude": 35.60427,
			"longitude": 139.600005,
			"rent": 7,
			"color": "#40e0d0"
		},
		{
			"id": 198,
			"name": "平和台",
			"latitude": 35.757863,
			"longitude": 139.653762,
			"rent": 7,
			"color": "#40e0d0"
		},
		{
			"id": 199,
			"name": "北綾瀬",
			"latitude": 35.7770135,
			"longitude": 139.8321012,
			"rent": 7,
			"color": "#40e0d0"
		},
		{
			"id": 200,
			"name": "本八幡",
			"latitude": 35.72278,
			"longitude": 139.9265,
			"rent": 7,
			"color": "#40e0d0"
		},
		{
			"id": 201,
			"name": "梶が谷",
			"latitude": 35.594102,
			"longitude": 139.606008,
			"rent": 7.1,
			"color": "#40e0d0"
		},
		{
			"id": 202,
			"name": "元住吉",
			"latitude": 35.56432,
			"longitude": 139.654,
			"rent": 7.1,
			"color": "#40e0d0"
		},
		{
			"id": 203,
			"name": "浜川崎",
			"latitude": 35.510414,
			"longitude": 139.713484,
			"rent": 7.1,
			"color": "#40e0d0"
		},
		{
			"id": 204,
			"name": "平井",
			"latitude": 35.70643,
			"longitude": 139.8425,
			"rent": 7.1,
			"color": "#40e0d0"
		},
		{
			"id": 205,
			"name": "豊島園",
			"latitude": 35.7419142116061,
			"longitude": 139.649146646261,
			"rent": 7.1,
			"color": "#40e0d0"
		},
		{
			"id": 206,
			"name": "三鷹",
			"latitude": 35.70271,
			"longitude": 139.5608,
			"rent": 7.15,
			"color": "#40e0d0"
		},
		{
			"id": 207,
			"name": "高津",
			"latitude": 35.603548,
			"longitude": 139.61747,
			"rent": 7.2,
			"color": "#40e0d0"
		},
		{
			"id": 208,
			"name": "小竹向原",
			"latitude": 35.743803,
			"longitude": 139.678572,
			"rent": 7.2,
			"color": "#40e0d0"
		},
		{
			"id": 209,
			"name": "青葉台",
			"latitude": 35.542955,
			"longitude": 139.517182,
			"rent": 7.2,
			"color": "#40e0d0"
		},
		{
			"id": 210,
			"name": "千歳烏山",
			"latitude": 35.668212,
			"longitude": 139.601139,
			"rent": 7.2,
			"color": "#40e0d0"
		},
		{
			"id": 211,
			"name": "千歳船橋",
			"latitude": 35.64735,
			"longitude": 139.62408,
			"rent": 7.2,
			"color": "#40e0d0"
		},
		{
			"id": 212,
			"name": "川崎新町",
			"latitude": 35.51818,
			"longitude": 139.699293,
			"rent": 7.2,
			"color": "#40e0d0"
		},
		{
			"id": 213,
			"name": "都立家政",
			"latitude": 35.722333,
			"longitude": 139.644586,
			"rent": 7.2,
			"color": "#40e0d0"
		},
		{
			"id": 214,
			"name": "二子新地",
			"latitude": 35.607125,
			"longitude": 139.622399,
			"rent": 7.2,
			"color": "#40e0d0"
		},
		{
			"id": 215,
			"name": "氷川台",
			"latitude": 35.749822,
			"longitude": 139.665023,
			"rent": 7.2,
			"color": "#40e0d0"
		},
		{
			"id": 216,
			"name": "北千住",
			"latitude": 35.749412,
			"longitude": 139.805108,
			"rent": 7.2,
			"color": "#40e0d0"
		},
		{
			"id": 217,
			"name": "尻手",
			"latitude": 35.531064,
			"longitude": 139.684389,
			"rent": 7.25,
			"color": "#40e0d0"
		},
		{
			"id": 218,
			"name": "志村三丁目",
			"latitude": 35.777464,
			"longitude": 139.685962,
			"rent": 7.28,
			"color": "#40e0d0"
		},
		{
			"id": 219,
			"name": "吉祥寺",
			"latitude": 35.702112100252,
			"longitude": 139.580452570226,
			"rent": 7.3,
			"color": "#40e0d0"
		},
		{
			"id": 220,
			"name": "久我山",
			"latitude": 35.687797,
			"longitude": 139.599703,
			"rent": 7.3,
			"color": "#40e0d0"
		},
		{
			"id": 221,
			"name": "宮の坂",
			"latitude": 35.64797,
			"longitude": 139.645,
			"rent": 7.3,
			"color": "#40e0d0"
		},
		{
			"id": 222,
			"name": "山下",
			"latitude": 35.65373,
			"longitude": 139.6473,
			"rent": 7.3,
			"color": "#40e0d0"
		},
		{
			"id": 223,
			"name": "新高島平",
			"latitude": 35.790294,
			"longitude": 139.654267,
			"rent": 7.3,
			"color": "#40e0d0"
		},
		{
			"id": 224,
			"name": "西台",
			"latitude": 35.786926,
			"longitude": 139.673987,
			"rent": 7.3,
			"color": "#40e0d0"
		},
		{
			"id": 225,
			"name": "千川",
			"latitude": 35.738418,
			"longitude": 139.689157,
			"rent": 7.3,
			"color": "#40e0d0"
		},
		{
			"id": 226,
			"name": "東神奈川",
			"latitude": 35.477951,
			"longitude": 139.633347,
			"rent": 7.3,
			"color": "#40e0d0"
		},
		{
			"id": 227,
			"name": "蓮根",
			"latitude": 35.784174,
			"longitude": 139.67904,
			"rent": 7.3,
			"color": "#40e0d0"
		},
		{
			"id": 228,
			"name": "芦花公園",
			"latitude": 35.670542,
			"longitude": 139.608224,
			"rent": 7.4,
			"color": "#40e0d0"
		},
		{
			"id": 229,
			"name": "溝の口",
			"latitude": 35.600032,
			"longitude": 139.610626,
			"rent": 7.4,
			"color": "#40e0d0"
		},
		{
			"id": 230,
			"name": "高島平",
			"latitude": 35.788833,
			"longitude": 139.661172,
			"rent": 7.4,
			"color": "#40e0d0"
		},
		{
			"id": 231,
			"name": "西永福",
			"latitude": 35.678798,
			"longitude": 139.635383,
			"rent": 7.4,
			"color": "#40e0d0"
		},
		{
			"id": 232,
			"name": "八丁畷",
			"latitude": 35.523113,
			"longitude": 139.691488,
			"rent": 7.4,
			"color": "#40e0d0"
		},
		{
			"id": 233,
			"name": "矢向",
			"latitude": 35.538933,
			"longitude": 139.680422,
			"rent": 7.4,
			"color": "#40e0d0"
		},
		{
			"id": 234,
			"name": "井の頭公園",
			"latitude": 35.697506,
			"longitude": 139.582696,
			"rent": 7.5,
			"color": "#40e0d0"
		},
		{
			"id": 235,
			"name": "経堂",
			"latitude": 35.651316,
			"longitude": 139.636437,
			"rent": 7.5,
			"color": "#40e0d0"
		},
		{
			"id": 236,
			"name": "桜上水",
			"latitude": 35.6674481,
			"longitude": 139.6318829,
			"rent": 7.5,
			"color": "#40e0d0"
		},
		{
			"id": 237,
			"name": "三鷹台",
			"latitude": 35.692235,
			"longitude": 139.588903,
			"rent": 7.5,
			"color": "#40e0d0"
		},
		{
			"id": 238,
			"name": "志村坂上",
			"latitude": 35.775725,
			"longitude": 139.69538,
			"rent": 7.5,
			"color": "#40e0d0"
		},
		{
			"id": 239,
			"name": "鹿島田",
			"latitude": 35.551331,
			"longitude": 139.675131,
			"rent": 7.5,
			"color": "#40e0d0"
		},
		{
			"id": 240,
			"name": "沼袋",
			"latitude": 35.719458,
			"longitude": 139.663841,
			"rent": 7.5,
			"color": "#40e0d0"
		},
		{
			"id": 241,
			"name": "上北沢",
			"latitude": 35.6688276,
			"longitude": 139.6233971,
			"rent": 7.5,
			"color": "#40e0d0"
		},
		{
			"id": 242,
			"name": "川崎",
			"latitude": 35.531328,
			"longitude": 139.696899,
			"rent": 7.5,
			"color": "#40e0d0"
		},
		{
			"id": 243,
			"name": "梅ヶ丘",
			"latitude": 35.6560169,
			"longitude": 139.6536376,
			"rent": 7.5,
			"color": "#40e0d0"
		},
		{
			"id": 244,
			"name": "八幡山",
			"latitude": 35.6698304,
			"longitude": 139.6161352,
			"rent": 7.5,
			"color": "#40e0d0"
		},
		{
			"id": 245,
			"name": "浜田山",
			"latitude": 35.681628,
			"longitude": 139.627509,
			"rent": 7.5,
			"color": "#40e0d0"
		},
		{
			"id": 246,
			"name": "富士見ヶ丘",
			"latitude": 35.6847865,
			"longitude": 139.6072018,
			"rent": 7.5,
			"color": "#40e0d0"
		},
		{
			"id": 247,
			"name": "武蔵溝ノ口",
			"latitude": 35.599032,
			"longitude": 139.611207,
			"rent": 7.5,
			"color": "#40e0d0"
		},
		{
			"id": 248,
			"name": "本蓮沼",
			"latitude": 35.768782,
			"longitude": 139.702324,
			"rent": 7.5,
			"color": "#40e0d0"
		},
		{
			"id": 249,
			"name": "野方",
			"latitude": 35.719658,
			"longitude": 139.652733,
			"rent": 7.5,
			"color": "#40e0d0"
		},
		{
			"id": 250,
			"name": "阿佐ケ谷",
			"latitude": 35.70482,
			"longitude": 139.6359,
			"rent": 7.6,
			"color": "#40e0d0"
		},
		{
			"id": 251,
			"name": "荻窪",
			"latitude": 35.70463,
			"longitude": 139.62,
			"rent": 7.6,
			"color": "#40e0d0"
		},
		{
			"id": 252,
			"name": "関内",
			"latitude": 35.443233,
			"longitude": 139.637134,
			"rent": 7.6,
			"color": "#40e0d0"
		},
		{
			"id": 253,
			"name": "高井戸",
			"latitude": 35.68322,
			"longitude": 139.615257,
			"rent": 7.6,
			"color": "#40e0d0"
		},
		{
			"id": 254,
			"name": "桜木町",
			"latitude": 35.450918,
			"longitude": 139.631073,
			"rent": 7.6,
			"color": "#40e0d0"
		},
		{
			"id": 255,
			"name": "新横浜",
			"latitude": 35.50679,
			"longitude": 139.6175,
			"rent": 7.6,
			"color": "#40e0d0"
		},
		{
			"id": 256,
			"name": "新江古田",
			"latitude": 35.732538,
			"longitude": 139.670653,
			"rent": 7.6,
			"color": "#40e0d0"
		},
		{
			"id": 257,
			"name": "新板橋",
			"latitude": 35.748802,
			"longitude": 139.719604,
			"rent": 7.6,
			"color": "#40e0d0"
		},
		{
			"id": 258,
			"name": "東十条",
			"latitude": 35.762947,
			"longitude": 139.727694,
			"rent": 7.6,
			"color": "#40e0d0"
		},
		{
			"id": 259,
			"name": "二子玉川",
			"latitude": 35.611499,
			"longitude": 139.626624,
			"rent": 7.6,
			"color": "#40e0d0"
		},
		{
			"id": 260,
			"name": "反町",
			"latitude": 35.47474,
			"longitude": 139.6253,
			"rent": 7.6,
			"color": "#40e0d0"
		},
		{
			"id": 261,
			"name": "練馬",
			"latitude": 35.73782,
			"longitude": 139.653566,
			"rent": 7.6,
			"color": "#40e0d0"
		},
		{
			"id": 262,
			"name": "上中里",
			"latitude": 35.746586,
			"longitude": 139.746927,
			"rent": 7.62,
			"color": "#40e0d0"
		},
		{
			"id": 263,
			"name": "町屋",
			"latitude": 35.742268,
			"longitude": 139.781435,
			"rent": 7.68,
			"color": "#40e0d0"
		},
		{
			"id": 264,
			"name": "高円寺",
			"latitude": 35.70539,
			"longitude": 139.6499,
			"rent": 7.7,
			"color": "#40e0d0"
		},
		{
			"id": 265,
			"name": "成瀬",
			"latitude": 35.53551,
			"longitude": 139.4729,
			"rent": 7.7,
			"color": "#40e0d0"
		},
		{
			"id": 266,
			"name": "藤が丘",
			"latitude": 35.543595,
			"longitude": 139.527873,
			"rent": 7.7,
			"color": "#40e0d0"
		},
		{
			"id": 267,
			"name": "武蔵新城",
			"latitude": 35.587225,
			"longitude": 139.629691,
			"rent": 7.7,
			"color": "#40e0d0"
		},
		{
			"id": 268,
			"name": "永福町",
			"latitude": 35.6762081618974,
			"longitude": 139.642725071171,
			"rent": 7.8,
			"color": "#40e0d0"
		},
		{
			"id": 269,
			"name": "松原",
			"latitude": 35.66005,
			"longitude": 139.642,
			"rent": 7.8,
			"color": "#40e0d0"
		},
		{
			"id": 270,
			"name": "西ヶ原",
			"latitude": 35.746008,
			"longitude": 139.742322,
			"rent": 7.8,
			"color": "#40e0d0"
		},
		{
			"id": 271,
			"name": "石川町",
			"latitude": 35.438247,
			"longitude": 139.643151,
			"rent": 7.8,
			"color": "#40e0d0"
		},
		{
			"id": 272,
			"name": "赤羽",
			"latitude": 35.778051,
			"longitude": 139.720856,
			"rent": 7.8,
			"color": "#40e0d0"
		},
		{
			"id": 273,
			"name": "武蔵小杉",
			"latitude": 35.57657,
			"longitude": 139.6594,
			"rent": 7.8,
			"color": "#40e0d0"
		},
		{
			"id": 274,
			"name": "王子神谷",
			"latitude": 35.765172,
			"longitude": 139.735933,
			"rent": 7.85,
			"color": "#40e0d0"
		},
		{
			"id": 275,
			"name": "西荻窪",
			"latitude": 35.70384,
			"longitude": 139.5994,
			"rent": 7.9,
			"color": "#40e0d0"
		},
		{
			"id": 276,
			"name": "西巣鴨",
			"latitude": 35.743508,
			"longitude": 139.728712,
			"rent": 7.9,
			"color": "#40e0d0"
		},
		{
			"id": 277,
			"name": "板橋本町",
			"latitude": 35.761339,
			"longitude": 139.705535,
			"rent": 7.9,
			"color": "#40e0d0"
		},
		{
			"id": 278,
			"name": "平間",
			"latitude": 35.56104,
			"longitude": 139.671039,
			"rent": 7.9,
			"color": "#40e0d0"
		},
		{
			"id": 279,
			"name": "落合南長崎",
			"latitude": 35.723608,
			"longitude": 139.683303,
			"rent": 7.9,
			"color": "#40e0d0"
		},
		{
			"id": 280,
			"name": "王子",
			"latitude": 35.752474,
			"longitude": 139.738139,
			"rent": 8,
			"color": "#32cd32"
		},
		{
			"id": 281,
			"name": "下北沢",
			"latitude": 35.6615464979642,
			"longitude": 139.666900156298,
			"rent": 8,
			"color": "#32cd32"
		},
		{
			"id": 282,
			"name": "雑司が谷",
			"latitude": 35.72034,
			"longitude": 139.715003,
			"rent": 8,
			"color": "#32cd32"
		},
		{
			"id": 283,
			"name": "上町",
			"latitude": 35.64341,
			"longitude": 139.6466,
			"rent": 8,
			"color": "#32cd32"
		},
		{
			"id": 284,
			"name": "新高円寺",
			"latitude": 35.697985,
			"longitude": 139.648068,
			"rent": 8,
			"color": "#32cd32"
		},
		{
			"id": 285,
			"name": "世田谷",
			"latitude": 35.64345,
			"longitude": 139.6506,
			"rent": 8,
			"color": "#32cd32"
		},
		{
			"id": 286,
			"name": "世田谷代田",
			"latitude": 35.658174,
			"longitude": 139.661252,
			"rent": 8,
			"color": "#32cd32"
		},
		{
			"id": 287,
			"name": "南阿佐ケ谷",
			"latitude": 35.699624,
			"longitude": 139.63576,
			"rent": 8,
			"color": "#32cd32"
		},
		{
			"id": 288,
			"name": "板橋区役所前",
			"latitude": 35.751326,
			"longitude": 139.710166,
			"rent": 8,
			"color": "#32cd32"
		},
		{
			"id": 289,
			"name": "下高井戸",
			"latitude": 35.6661402,
			"longitude": 139.6414073,
			"rent": 8.1,
			"color": "#32cd32"
		},
		{
			"id": 290,
			"name": "向河原",
			"latitude": 35.572908,
			"longitude": 139.667242,
			"rent": 8.1,
			"color": "#32cd32"
		},
		{
			"id": 291,
			"name": "西馬込",
			"latitude": 35.586859,
			"longitude": 139.705942,
			"rent": 8.1,
			"color": "#32cd32"
		},
		{
			"id": 292,
			"name": "赤羽岩淵",
			"latitude": 35.783417,
			"longitude": 139.722103,
			"rent": 8.1,
			"color": "#32cd32"
		},
		{
			"id": 293,
			"name": "要町",
			"latitude": 35.73323,
			"longitude": 139.698715,
			"rent": 8.12,
			"color": "#32cd32"
		},
		{
			"id": 294,
			"name": "新丸子",
			"latitude": 35.58063,
			"longitude": 139.6619,
			"rent": 8.15,
			"color": "#32cd32"
		},
		{
			"id": 295,
			"name": "小机",
			"latitude": 35.50855,
			"longitude": 139.6001,
			"rent": 8.2,
			"color": "#32cd32"
		},
		{
			"id": 296,
			"name": "松陰神社前",
			"latitude": 35.64399,
			"longitude": 139.6552,
			"rent": 8.2,
			"color": "#32cd32"
		},
		{
			"id": 297,
			"name": "西日暮里",
			"latitude": 35.732135,
			"longitude": 139.766787,
			"rent": 8.2,
			"color": "#32cd32"
		},
		{
			"id": 298,
			"name": "田園調布",
			"latitude": 35.60384,
			"longitude": 139.6723,
			"rent": 8.2,
			"color": "#32cd32"
		},
		{
			"id": 299,
			"name": "東松原",
			"latitude": 35.662656,
			"longitude": 139.655652,
			"rent": 8.2,
			"color": "#32cd32"
		},
		{
			"id": 300,
			"name": "東中野",
			"latitude": 35.7061216972349,
			"longitude": 139.68379064463,
			"rent": 8.2,
			"color": "#32cd32"
		},
		{
			"id": 301,
			"name": "馬込",
			"latitude": 35.596435,
			"longitude": 139.711772,
			"rent": 8.2,
			"color": "#32cd32"
		},
		{
			"id": 302,
			"name": "多摩川",
			"latitude": 35.58977,
			"longitude": 139.6688,
			"rent": 8.3,
			"color": "#32cd32"
		},
		{
			"id": 303,
			"name": "中野",
			"latitude": 35.706032,
			"longitude": 139.665652,
			"rent": 8.3,
			"color": "#32cd32"
		},
		{
			"id": 304,
			"name": "東高円寺",
			"latitude": 35.697802,
			"longitude": 139.657822,
			"rent": 8.3,
			"color": "#32cd32"
		},
		{
			"id": 305,
			"name": "明大前",
			"latitude": 35.6683488,
			"longitude": 139.6505541,
			"rent": 8.3,
			"color": "#32cd32"
		},
		{
			"id": 306,
			"name": "東大島",
			"latitude": 35.690347,
			"longitude": 139.84596,
			"rent": 8.35,
			"color": "#32cd32"
		},
		{
			"id": 307,
			"name": "横浜",
			"latitude": 35.46619,
			"longitude": 139.6227,
			"rent": 8.4,
			"color": "#32cd32"
		},
		{
			"id": 308,
			"name": "大塚",
			"latitude": 35.73159,
			"longitude": 139.7293,
			"rent": 8.4,
			"color": "#32cd32"
		},
		{
			"id": 309,
			"name": "中井",
			"latitude": 35.715065,
			"longitude": 139.687264,
			"rent": 8.4,
			"color": "#32cd32"
		},
		{
			"id": 310,
			"name": "南千住",
			"latitude": 35.733336,
			"longitude": 139.799171,
			"rent": 8.4,
			"color": "#32cd32"
		},
		{
			"id": 311,
			"name": "落合",
			"latitude": 35.71074,
			"longitude": 139.686337,
			"rent": 8.4,
			"color": "#32cd32"
		},
		{
			"id": 312,
			"name": "方南町",
			"latitude": 35.683496,
			"longitude": 139.656498,
			"rent": 8.42,
			"color": "#32cd32"
		},
		{
			"id": 313,
			"name": "巣鴨",
			"latitude": 35.733492,
			"longitude": 139.739345,
			"rent": 8.45,
			"color": "#32cd32"
		},
		{
			"id": 314,
			"name": "東池袋",
			"latitude": 35.725362,
			"longitude": 139.720435,
			"rent": 8.45,
			"color": "#32cd32"
		},
		{
			"id": 315,
			"name": "護国寺",
			"latitude": 35.719044,
			"longitude": 139.72754,
			"rent": 8.5,
			"color": "#32cd32"
		},
		{
			"id": 316,
			"name": "三ノ輪",
			"latitude": 35.729528,
			"longitude": 139.79133,
			"rent": 8.5,
			"color": "#32cd32"
		},
		{
			"id": 317,
			"name": "新代田",
			"latitude": 35.662593,
			"longitude": 139.660524,
			"rent": 8.5,
			"color": "#32cd32"
		},
		{
			"id": 318,
			"name": "東北沢",
			"latitude": 35.665609,
			"longitude": 139.673228,
			"rent": 8.5,
			"color": "#32cd32"
		},
		{
			"id": 319,
			"name": "日暮里",
			"latitude": 35.72777,
			"longitude": 139.771,
			"rent": 8.5,
			"color": "#32cd32"
		},
		{
			"id": 320,
			"name": "武蔵中原",
			"latitude": 35.5806616208895,
			"longitude": 139.642101069912,
			"rent": 8.5,
			"color": "#32cd32"
		},
		{
			"id": 321,
			"name": "新中野",
			"latitude": 35.697491,
			"longitude": 139.66903,
			"rent": 8.6,
			"color": "#32cd32"
		},
		{
			"id": 322,
			"name": "千駄木",
			"latitude": 35.725549,
			"longitude": 139.763243,
			"rent": 8.6,
			"color": "#32cd32"
		},
		{
			"id": 323,
			"name": "代田橋",
			"latitude": 35.671071,
			"longitude": 139.659387,
			"rent": 8.6,
			"color": "#32cd32"
		},
		{
			"id": 324,
			"name": "中野富士見町",
			"latitude": 35.690514,
			"longitude": 139.666933,
			"rent": 8.6,
			"color": "#32cd32"
		},
		{
			"id": 325,
			"name": "押上",
			"latitude": 35.710702,
			"longitude": 139.812935,
			"rent": 8.7,
			"color": "#32cd32"
		},
		{
			"id": 326,
			"name": "蒲田",
			"latitude": 35.562479,
			"longitude": 139.716051,
			"rent": 8.7,
			"color": "#32cd32"
		},
		{
			"id": 327,
			"name": "駒沢大学",
			"latitude": 35.633471,
			"longitude": 139.661702,
			"rent": 8.7,
			"color": "#32cd32"
		},
		{
			"id": 328,
			"name": "若林",
			"latitude": 35.646,
			"longitude": 139.6599,
			"rent": 8.7,
			"color": "#32cd32"
		},
		{
			"id": 329,
			"name": "新井薬師前",
			"latitude": 35.715795,
			"longitude": 139.671885,
			"rent": 8.7,
			"color": "#32cd32"
		},
		{
			"id": 330,
			"name": "田端",
			"latitude": 35.73806,
			"longitude": 139.7609,
			"rent": 8.7,
			"color": "#32cd32"
		},
		{
			"id": 331,
			"name": "白山",
			"latitude": 35.72133,
			"longitude": 139.752078,
			"rent": 8.7,
			"color": "#32cd32"
		},
		{
			"id": 332,
			"name": "目白",
			"latitude": 35.7212,
			"longitude": 139.7066,
			"rent": 8.7,
			"color": "#32cd32"
		},
		{
			"id": 333,
			"name": "学芸大学",
			"latitude": 35.62885,
			"longitude": 139.6853,
			"rent": 8.8,
			"color": "#32cd32"
		},
		{
			"id": 334,
			"name": "笹塚",
			"latitude": 35.673654,
			"longitude": 139.667136,
			"rent": 8.8,
			"color": "#32cd32"
		},
		{
			"id": 335,
			"name": "三越前",
			"latitude": 35.684888,
			"longitude": 139.773161,
			"rent": 8.8,
			"color": "#32cd32"
		},
		{
			"id": 336,
			"name": "代々木上原",
			"latitude": 35.669062,
			"longitude": 139.679678,
			"rent": 8.8,
			"color": "#32cd32"
		},
		{
			"id": 337,
			"name": "中野新橋",
			"latitude": 35.692123,
			"longitude": 139.673997,
			"rent": 8.8,
			"color": "#32cd32"
		},
		{
			"id": 338,
			"name": "幡ヶ谷",
			"latitude": 35.6770576,
			"longitude": 139.6761859,
			"rent": 8.8,
			"color": "#32cd32"
		},
		{
			"id": 339,
			"name": "中野坂上",
			"latitude": 35.69792,
			"longitude": 139.68291,
			"rent": 8.85,
			"color": "#32cd32"
		},
		{
			"id": 340,
			"name": "大森",
			"latitude": 35.588442,
			"longitude": 139.727929,
			"rent": 8.88,
			"color": "#32cd32"
		},
		{
			"id": 341,
			"name": "桜新町",
			"latitude": 35.631666,
			"longitude": 139.644779,
			"rent": 8.9,
			"color": "#32cd32"
		},
		{
			"id": 342,
			"name": "春日",
			"latitude": 35.7098292315065,
			"longitude": 139.753185447771,
			"rent": 8.9,
			"color": "#32cd32"
		},
		{
			"id": 343,
			"name": "西早稲田",
			"latitude": 35.707941,
			"longitude": 139.709093,
			"rent": 8.9,
			"color": "#32cd32"
		},
		{
			"id": 344,
			"name": "早稲田",
			"latitude": 35.705723,
			"longitude": 139.721319,
			"rent": 8.9,
			"color": "#32cd32"
		},
		{
			"id": 345,
			"name": "大井町",
			"latitude": 35.606249,
			"longitude": 139.734855,
			"rent": 8.9,
			"color": "#32cd32"
		},
		{
			"id": 346,
			"name": "中延",
			"latitude": 35.605479,
			"longitude": 139.713679,
			"rent": 8.9,
			"color": "#32cd32"
		},
		{
			"id": 347,
			"name": "東大前",
			"latitude": 35.717633,
			"longitude": 139.758025,
			"rent": 8.9,
			"color": "#32cd32"
		},
		{
			"id": 348,
			"name": "日本橋",
			"latitude": 35.682413,
			"longitude": 139.773919,
			"rent": 8.9,
			"color": "#32cd32"
		},
		{
			"id": 349,
			"name": "祐天寺",
			"latitude": 35.6377,
			"longitude": 139.6912,
			"rent": 8.9,
			"color": "#32cd32"
		},
		{
			"id": 350,
			"name": "本所吾妻橋",
			"latitude": 35.70858,
			"longitude": 139.804624,
			"rent": 8.95,
			"color": "#7cfc00"
		},
		{
			"id": 351,
			"name": "亀戸",
			"latitude": 35.69759,
			"longitude": 139.8261,
			"rent": 9,
			"color": "#7cfc00"
		},
		{
			"id": 352,
			"name": "参宮橋",
			"latitude": 35.678714,
			"longitude": 139.693562,
			"rent": 9,
			"color": "#7cfc00"
		},
		{
			"id": 353,
			"name": "上野広小路",
			"latitude": 35.70766,
			"longitude": 139.772977,
			"rent": 9,
			"color": "#7cfc00"
		},
		{
			"id": 354,
			"name": "大島",
			"latitude": 35.689905,
			"longitude": 139.83565,
			"rent": 9,
			"color": "#7cfc00"
		},
		{
			"id": 355,
			"name": "八丁堀",
			"latitude": 35.674617,
			"longitude": 139.777705,
			"rent": 9,
			"color": "#7cfc00"
		},
		{
			"id": 356,
			"name": "浅草",
			"latitude": 35.712074,
			"longitude": 139.79843,
			"rent": 9.05,
			"color": "#7cfc00"
		},
		{
			"id": 357,
			"name": "本駒込",
			"latitude": 35.724155,
			"longitude": 139.753828,
			"rent": 9.1,
			"color": "#7cfc00"
		},
		{
			"id": 358,
			"name": "下落合",
			"latitude": 35.715846,
			"longitude": 139.695152,
			"rent": 9.2,
			"color": "#7cfc00"
		},
		{
			"id": 359,
			"name": "高田馬場",
			"latitude": 35.712285,
			"longitude": 139.703782,
			"rent": 9.2,
			"color": "#7cfc00"
		},
		{
			"id": 360,
			"name": "自由が丘",
			"latitude": 35.60758,
			"longitude": 139.6691,
			"rent": 9.2,
			"color": "#7cfc00"
		},
		{
			"id": 361,
			"name": "西新宿五丁目",
			"latitude": 35.6898804777869,
			"longitude": 139.684550859674,
			"rent": 9.2,
			"color": "#7cfc00"
		},
		{
			"id": 362,
			"name": "西大島",
			"latitude": 35.689349,
			"longitude": 139.826206,
			"rent": 9.2,
			"color": "#7cfc00"
		},
		{
			"id": 363,
			"name": "千石",
			"latitude": 35.727957,
			"longitude": 139.744792,
			"rent": 9.2,
			"color": "#7cfc00"
		},
		{
			"id": 364,
			"name": "池袋",
			"latitude": 35.72893,
			"longitude": 139.7104,
			"rent": 9.2,
			"color": "#7cfc00"
		},
		{
			"id": 365,
			"name": "用賀",
			"latitude": 35.626436,
			"longitude": 139.633928,
			"rent": 9.2,
			"color": "#7cfc00"
		},
		{
			"id": 366,
			"name": "錦糸町",
			"latitude": 35.696437,
			"longitude": 139.813949,
			"rent": 9.25,
			"color": "#7cfc00"
		},
		{
			"id": 367,
			"name": "住吉",
			"latitude": 35.689071,
			"longitude": 139.815651,
			"rent": 9.25,
			"color": "#7cfc00"
		},
		{
			"id": 368,
			"name": "戸越",
			"latitude": 35.614719,
			"longitude": 139.716398,
			"rent": 9.3,
			"color": "#7cfc00"
		},
		{
			"id": 369,
			"name": "新大塚",
			"latitude": 35.725793,
			"longitude": 139.729915,
			"rent": 9.3,
			"color": "#7cfc00"
		},
		{
			"id": 370,
			"name": "東陽町",
			"latitude": 35.669629,
			"longitude": 139.817596,
			"rent": 9.3,
			"color": "#7cfc00"
		},
		{
			"id": 371,
			"name": "入谷",
			"latitude": 35.720734,
			"longitude": 139.784542,
			"rent": 9.3,
			"color": "#7cfc00"
		},
		{
			"id": 372,
			"name": "茗荷谷",
			"latitude": 35.717305,
			"longitude": 139.736734,
			"rent": 9.3,
			"color": "#7cfc00"
		},
		{
			"id": 373,
			"name": "後楽園",
			"latitude": 35.707337,
			"longitude": 139.7512,
			"rent": 9.4,
			"color": "#7cfc00"
		},
		{
			"id": 374,
			"name": "初台",
			"latitude": 35.6809863,
			"longitude": 139.6861815,
			"rent": 9.4,
			"color": "#7cfc00"
		},
		{
			"id": 375,
			"name": "南砂町",
			"latitude": 35.668796,
			"longitude": 139.83065,
			"rent": 9.4,
			"color": "#7cfc00"
		},
		{
			"id": 376,
			"name": "両国",
			"latitude": 35.6966186752156,
			"longitude": 139.797366606071,
			"rent": 9.4,
			"color": "#7cfc00"
		},
		{
			"id": 377,
			"name": "茅場町",
			"latitude": 35.679752,
			"longitude": 139.780005,
			"rent": 9.5,
			"color": "#7cfc00"
		},
		{
			"id": 378,
			"name": "新大久保",
			"latitude": 35.70131,
			"longitude": 139.7,
			"rent": 9.5,
			"color": "#7cfc00"
		},
		{
			"id": 379,
			"name": "田原町",
			"latitude": 35.709855,
			"longitude": 139.7908,
			"rent": 9.5,
			"color": "#7cfc00"
		},
		{
			"id": 380,
			"name": "木場",
			"latitude": 35.669457,
			"longitude": 139.806528,
			"rent": 9.5,
			"color": "#7cfc00"
		},
		{
			"id": 381,
			"name": "門前仲町",
			"latitude": 35.6724674827531,
			"longitude": 139.794726411346,
			"rent": 9.5,
			"color": "#7cfc00"
		},
		{
			"id": 382,
			"name": "鶯谷",
			"latitude": 35.7205,
			"longitude": 139.7788,
			"rent": 9.5,
			"color": "#7cfc00"
		},
		{
			"id": 383,
			"name": "駒込",
			"latitude": 35.736489,
			"longitude": 139.746875,
			"rent": 9.6,
			"color": "#7cfc00"
		},
		{
			"id": 384,
			"name": "三軒茶屋",
			"latitude": 35.643515,
			"longitude": 139.671162,
			"rent": 9.6,
			"color": "#7cfc00"
		},
		{
			"id": 385,
			"name": "代々木公園",
			"latitude": 35.668954,
			"longitude": 139.691318,
			"rent": 9.6,
			"color": "#7cfc00"
		},
		{
			"id": 386,
			"name": "大崎",
			"latitude": 35.6197,
			"longitude": 139.7286,
			"rent": 9.6,
			"color": "#7cfc00"
		},
		{
			"id": 387,
			"name": "本郷三丁目",
			"latitude": 35.7074415606801,
			"longitude": 139.760448848828,
			"rent": 9.6,
			"color": "#7cfc00"
		},
		{
			"id": 388,
			"name": "新木場",
			"latitude": 35.646157,
			"longitude": 139.827426,
			"rent": 9.65,
			"color": "#7cfc00"
		},
		{
			"id": 389,
			"name": "江戸川橋",
			"latitude": 35.709495,
			"longitude": 139.733538,
			"rent": 9.7,
			"color": "#7cfc00"
		},
		{
			"id": 390,
			"name": "市ケ谷",
			"latitude": 35.6912107320703,
			"longitude": 139.73649022635,
			"rent": 9.7,
			"color": "#7cfc00"
		},
		{
			"id": 391,
			"name": "若松河田",
			"latitude": 35.699218,
			"longitude": 139.718184,
			"rent": 9.7,
			"color": "#7cfc00"
		},
		{
			"id": 392,
			"name": "辰巳",
			"latitude": 35.645576,
			"longitude": 139.81052,
			"rent": 9.7,
			"color": "#7cfc00"
		},
		{
			"id": 393,
			"name": "豊洲",
			"latitude": 35.654908,
			"longitude": 139.79621,
			"rent": 9.7,
			"color": "#7cfc00"
		},
		{
			"id": 394,
			"name": "有楽町",
			"latitude": 35.675069,
			"longitude": 139.763328,
			"rent": 9.7,
			"color": "#7cfc00"
		},
		{
			"id": 395,
			"name": "根津",
			"latitude": 35.717373,
			"longitude": 139.765741,
			"rent": 9.8,
			"color": "#7cfc00"
		},
		{
			"id": 396,
			"name": "新宿西口",
			"latitude": 35.693315,
			"longitude": 139.699155,
			"rent": 9.8,
			"color": "#7cfc00"
		},
		{
			"id": 397,
			"name": "森下",
			"latitude": 35.6880078574585,
			"longitude": 139.79817285086,
			"rent": 9.8,
			"color": "#7cfc00"
		},
		{
			"id": 398,
			"name": "清澄白河",
			"latitude": 35.682105,
			"longitude": 139.798851,
			"rent": 9.8,
			"color": "#7cfc00"
		},
		{
			"id": 399,
			"name": "西太子堂",
			"latitude": 35.64466,
			"longitude": 139.6662,
			"rent": 9.8,
			"color": "#7cfc00"
		},
		{
			"id": 400,
			"name": "代々木八幡",
			"latitude": 35.669484,
			"longitude": 139.688635,
			"rent": 9.8,
			"color": "#7cfc00"
		},
		{
			"id": 401,
			"name": "中目黒",
			"latitude": 35.644307,
			"longitude": 139.699157,
			"rent": 9.8,
			"color": "#7cfc00"
		},
		{
			"id": 402,
			"name": "東新宿",
			"latitude": 35.69792,
			"longitude": 139.707549,
			"rent": 9.8,
			"color": "#7cfc00"
		},
		{
			"id": 403,
			"name": "宝町",
			"latitude": 35.675461,
			"longitude": 139.771767,
			"rent": 9.8,
			"color": "#7cfc00"
		},
		{
			"id": 404,
			"name": "大久保",
			"latitude": 35.70072,
			"longitude": 139.6974,
			"rent": 9.85,
			"color": "#7cfc00"
		},
		{
			"id": 405,
			"name": "稲荷町",
			"latitude": 35.711352,
			"longitude": 139.782734,
			"rent": 9.9,
			"color": "#7cfc00"
		},
		{
			"id": 406,
			"name": "月島",
			"latitude": 35.6638199832237,
			"longitude": 139.783909963443,
			"rent": 9.9,
			"color": "#7cfc00"
		},
		{
			"id": 407,
			"name": "牛込柳町",
			"latitude": 35.699518,
			"longitude": 139.725027,
			"rent": 10,
			"color": "#f0e68c"
		},
		{
			"id": 408,
			"name": "御茶ノ水",
			"latitude": 35.69986,
			"longitude": 139.7638,
			"rent": 10,
			"color": "#f0e68c"
		},
		{
			"id": 409,
			"name": "勝どき",
			"latitude": 35.6589560224249,
			"longitude": 139.777108824346,
			"rent": 10,
			"color": "#f0e68c"
		},
		{
			"id": 410,
			"name": "蔵前",
			"latitude": 35.7054625570622,
			"longitude": 139.79250910459,
			"rent": 10,
			"color": "#f0e68c"
		},
		{
			"id": 411,
			"name": "池ノ上",
			"latitude": 35.660452,
			"longitude": 139.673117,
			"rent": 10,
			"color": "#f0e68c"
		},
		{
			"id": 412,
			"name": "築地",
			"latitude": 35.668115,
			"longitude": 139.772603,
			"rent": 10,
			"color": "#f0e68c"
		},
		{
			"id": 413,
			"name": "湯島",
			"latitude": 35.708243,
			"longitude": 139.769916,
			"rent": 10,
			"color": "#f0e68c"
		},
		{
			"id": 414,
			"name": "神田",
			"latitude": 35.69169,
			"longitude": 139.770883,
			"rent": 10.1,
			"color": "#f0e68c"
		},
		{
			"id": 415,
			"name": "都立大学",
			"latitude": 35.61784,
			"longitude": 139.6764,
			"rent": 10.1,
			"color": "#f0e68c"
		},
		{
			"id": 416,
			"name": "品川",
			"latitude": 35.63015,
			"longitude": 139.7404,
			"rent": 10.1,
			"color": "#f0e68c"
		},
		{
			"id": 417,
			"name": "都庁前",
			"latitude": 35.6905756760696,
			"longitude": 139.69266111846,
			"rent": 10.15,
			"color": "#f0e68c"
		},
		{
			"id": 418,
			"name": "菊川",
			"latitude": 35.688379,
			"longitude": 139.806016,
			"rent": 10.2,
			"color": "#f0e68c"
		},
		{
			"id": 419,
			"name": "京橋",
			"latitude": 35.67685,
			"longitude": 139.7701,
			"rent": 10.2,
			"color": "#f0e68c"
		},
		{
			"id": 420,
			"name": "小伝馬町",
			"latitude": 35.690737,
			"longitude": 139.778433,
			"rent": 10.2,
			"color": "#f0e68c"
		},
		{
			"id": 421,
			"name": "水天宮前",
			"latitude": 35.682061,
			"longitude": 139.786035,
			"rent": 10.2,
			"color": "#f0e68c"
		},
		{
			"id": 422,
			"name": "高輪ゲートウェイ",
			"latitude": 35.6355,
			"longitude": 139.7407,
			"rent": 10.3,
			"color": "#f0e68c"
		},
		{
			"id": 423,
			"name": "人形町",
			"latitude": 35.686307,
			"longitude": 139.782285,
			"rent": 10.3,
			"color": "#f0e68c"
		},
		{
			"id": 424,
			"name": "水道橋",
			"latitude": 35.70203,
			"longitude": 139.753653,
			"rent": 10.3,
			"color": "#f0e68c"
		},
		{
			"id": 425,
			"name": "東日本橋",
			"latitude": 35.692126,
			"longitude": 139.784821,
			"rent": 10.3,
			"color": "#f0e68c"
		},
		{
			"id": 426,
			"name": "五反田",
			"latitude": 35.62645,
			"longitude": 139.7234,
			"rent": 10.35,
			"color": "#f0e68c"
		},
		{
			"id": 427,
			"name": "新御徒町",
			"latitude": 35.707055,
			"longitude": 139.78194,
			"rent": 10.35,
			"color": "#f0e68c"
		},
		{
			"id": 428,
			"name": "上野",
			"latitude": 35.713768,
			"longitude": 139.777254,
			"rent": 10.4,
			"color": "#f0e68c"
		},
		{
			"id": 429,
			"name": "浅草橋",
			"latitude": 35.697452386729,
			"longitude": 139.786369695793,
			"rent": 10.4,
			"color": "#f0e68c"
		},
		{
			"id": 430,
			"name": "北参道",
			"latitude": 35.678156,
			"longitude": 139.705678,
			"rent": 10.4,
			"color": "#f0e68c"
		},
		{
			"id": 431,
			"name": "銀座一丁目",
			"latitude": 35.67435,
			"longitude": 139.767045,
			"rent": 10.5,
			"color": "#f0e68c"
		},
		{
			"id": 432,
			"name": "新富町",
			"latitude": 35.670462,
			"longitude": 139.773711,
			"rent": 10.5,
			"color": "#f0e68c"
		},
		{
			"id": 433,
			"name": "神楽坂",
			"latitude": 35.703904,
			"longitude": 139.734238,
			"rent": 10.5,
			"color": "#f0e68c"
		},
		{
			"id": 434,
			"name": "泉岳寺",
			"latitude": 35.638692,
			"longitude": 139.74002,
			"rent": 10.5,
			"color": "#f0e68c"
		},
		{
			"id": 435,
			"name": "池尻大橋",
			"latitude": 35.650603,
			"longitude": 139.684319,
			"rent": 10.5,
			"color": "#f0e68c"
		},
		{
			"id": 436,
			"name": "田町",
			"latitude": 35.64574,
			"longitude": 139.7476,
			"rent": 10.5,
			"color": "#f0e68c"
		},
		{
			"id": 437,
			"name": "三田",
			"latitude": 35.64818,
			"longitude": 139.748775,
			"rent": 10.6,
			"color": "#f0e68c"
		},
		{
			"id": 438,
			"name": "秋葉原",
			"latitude": 35.698683,
			"longitude": 139.774219,
			"rent": 10.7,
			"color": "#f0e68c"
		},
		{
			"id": 439,
			"name": "築地市場",
			"latitude": 35.664895,
			"longitude": 139.766915,
			"rent": 10.7,
			"color": "#f0e68c"
		},
		{
			"id": 440,
			"name": "末広町",
			"latitude": 35.702972,
			"longitude": 139.771713,
			"rent": 10.7,
			"color": "#f0e68c"
		},
		{
			"id": 441,
			"name": "目黒",
			"latitude": 35.633998,
			"longitude": 139.715828,
			"rent": 10.7,
			"color": "#f0e68c"
		},
		{
			"id": 442,
			"name": "牛込神楽坂",
			"latitude": 35.700851,
			"longitude": 139.735802,
			"rent": 10.8,
			"color": "#f0e68c"
		},
		{
			"id": 443,
			"name": "九段下",
			"latitude": 35.69543188,
			"longitude": 139.7511257,
			"rent": 10.8,
			"color": "#f0e68c"
		},
		{
			"id": 444,
			"name": "東銀座",
			"latitude": 35.669464,
			"longitude": 139.767253,
			"rent": 10.8,
			"color": "#f0e68c"
		},
		{
			"id": 445,
			"name": "駒場東大前",
			"latitude": 35.658655,
			"longitude": 139.684483,
			"rent": 10.85,
			"color": "#f0e68c"
		},
		{
			"id": 446,
			"name": "銀座",
			"latitude": 35.671989,
			"longitude": 139.763965,
			"rent": 10.9,
			"color": "#f0e68c"
		},
		{
			"id": 447,
			"name": "御徒町",
			"latitude": 35.70796,
			"longitude": 139.7734,
			"rent": 10.9,
			"color": "#f0e68c"
		},
		{
			"id": 448,
			"name": "新宿",
			"latitude": 35.6884464421313,
			"longitude": 139.698601593263,
			"rent": 10.9,
			"color": "#f0e68c"
		},
		{
			"id": 449,
			"name": "新宿御苑前",
			"latitude": 35.688588,
			"longitude": 139.71069,
			"rent": 10.9,
			"color": "#f0e68c"
		},
		{
			"id": 450,
			"name": "新宿三丁目",
			"latitude": 35.690616,
			"longitude": 139.706271,
			"rent": 10.9,
			"color": "#f0e68c"
		},
		{
			"id": 451,
			"name": "内幸町",
			"latitude": 35.66975,
			"longitude": 139.75561,
			"rent": 10.9,
			"color": "#f0e68c"
		},
		{
			"id": 452,
			"name": "飯田橋",
			"latitude": 35.702065,
			"longitude": 139.745015,
			"rent": 10.9,
			"color": "#f0e68c"
		},
		{
			"id": 453,
			"name": "虎ノ門",
			"latitude": 35.670236,
			"longitude": 139.749832,
			"rent": 11,
			"color": "#bdb76b"
		},
		{
			"id": 454,
			"name": "四谷三丁目",
			"latitude": 35.687958,
			"longitude": 139.720103,
			"rent": 11,
			"color": "#bdb76b"
		},
		{
			"id": 455,
			"name": "西新宿",
			"latitude": 35.694298,
			"longitude": 139.692778,
			"rent": 11,
			"color": "#bdb76b"
		},
		{
			"id": 456,
			"name": "仲御徒町",
			"latitude": 35.706555,
			"longitude": 139.776202,
			"rent": 11,
			"color": "#bdb76b"
		},
		{
			"id": 457,
			"name": "四ツ谷",
			"latitude": 35.68601,
			"longitude": 139.7307,
			"rent": 11.1,
			"color": "#bdb76b"
		},
		{
			"id": 458,
			"name": "上野御徒町",
			"latitude": 35.7079636219993,
			"longitude": 139.77336630458,
			"rent": 11.2,
			"color": "#bdb76b"
		},
		{
			"id": 459,
			"name": "代官山",
			"latitude": 35.6481,
			"longitude": 139.7032,
			"rent": 11.2,
			"color": "#bdb76b"
		},
		{
			"id": 460,
			"name": "代々木",
			"latitude": 35.6830438382709,
			"longitude": 139.70207164355,
			"rent": 11.2,
			"color": "#bdb76b"
		},
		{
			"id": 461,
			"name": "南新宿",
			"latitude": 35.683469,
			"longitude": 139.698517,
			"rent": 11.2,
			"color": "#bdb76b"
		},
		{
			"id": 462,
			"name": "恵比寿",
			"latitude": 35.64669,
			"longitude": 139.710106,
			"rent": 11.3,
			"color": "#bdb76b"
		},
		{
			"id": 463,
			"name": "新御茶ノ水",
			"latitude": 35.698072,
			"longitude": 139.766014,
			"rent": 11.3,
			"color": "#bdb76b"
		},
		{
			"id": 464,
			"name": "神保町",
			"latitude": 35.69591611,
			"longitude": 139.7574395,
			"rent": 11.3,
			"color": "#bdb76b"
		},
		{
			"id": 465,
			"name": "馬喰横山",
			"latitude": 35.6919602404342,
			"longitude": 139.782943215686,
			"rent": 11.3,
			"color": "#bdb76b"
		},
		{
			"id": 466,
			"name": "浜町",
			"latitude": 35.6884108373731,
			"longitude": 139.787933654151,
			"rent": 11.3,
			"color": "#bdb76b"
		},
		{
			"id": 467,
			"name": "曙橋",
			"latitude": 35.6923758,
			"longitude": 139.7226303,
			"rent": 11.4,
			"color": "#bdb76b"
		},
		{
			"id": 468,
			"name": "新橋",
			"latitude": 35.665498,
			"longitude": 139.75964,
			"rent": 11.4,
			"color": "#bdb76b"
		},
		{
			"id": 469,
			"name": "原宿",
			"latitude": 35.67017,
			"longitude": 139.7027,
			"rent": 11.5,
			"color": "#bdb76b"
		},
		{
			"id": 470,
			"name": "御成門",
			"latitude": 35.6604750470776,
			"longitude": 139.751202268526,
			"rent": 11.5,
			"color": "#bdb76b"
		},
		{
			"id": 471,
			"name": "広尾",
			"latitude": 35.652279,
			"longitude": 139.722227,
			"rent": 11.5,
			"color": "#bdb76b"
		},
		{
			"id": 472,
			"name": "汐留",
			"latitude": 35.6628872948688,
			"longitude": 139.760140478611,
			"rent": 11.5,
			"color": "#bdb76b"
		},
		{
			"id": 473,
			"name": "芝公園",
			"latitude": 35.654071,
			"longitude": 139.749838,
			"rent": 11.5,
			"color": "#bdb76b"
		},
		{
			"id": 474,
			"name": "渋谷",
			"latitude": 35.6586161,
			"longitude": 139.6993714,
			"rent": 11.5,
			"color": "#bdb76b"
		},
		{
			"id": 475,
			"name": "赤羽橋",
			"latitude": 35.655007,
			"longitude": 139.743642,
			"rent": 11.5,
			"color": "#bdb76b"
		},
		{
			"id": 476,
			"name": "白金高輪",
			"latitude": 35.642903,
			"longitude": 139.734104,
			"rent": 11.5,
			"color": "#bdb76b"
		},
		{
			"id": 477,
			"name": "表参道",
			"latitude": 35.665247,
			"longitude": 139.712314,
			"rent": 11.5,
			"color": "#bdb76b"
		},
		{
			"id": 478,
			"name": "高輪台",
			"latitude": 35.631679,
			"longitude": 139.730305,
			"rent": 11.7,
			"color": "#bdb76b"
		},
		{
			"id": 479,
			"name": "神泉",
			"latitude": 35.657241,
			"longitude": 139.693641,
			"rent": 11.7,
			"color": "#bdb76b"
		},
		{
			"id": 480,
			"name": "大門",
			"latitude": 35.6568905486127,
			"longitude": 139.754699408076,
			"rent": 11.7,
			"color": "#bdb76b"
		},
		{
			"id": 481,
			"name": "浜松町",
			"latitude": 35.65565,
			"longitude": 139.7567,
			"rent": 11.7,
			"color": "#bdb76b"
		},
		{
			"id": 482,
			"name": "岩本町",
			"latitude": 35.6955703928471,
			"longitude": 139.775131931528,
			"rent": 11.8,
			"color": "#bdb76b"
		},
		{
			"id": 483,
			"name": "竹橋",
			"latitude": 35.690662,
			"longitude": 139.756817,
			"rent": 11.8,
			"color": "#bdb76b"
		},
		{
			"id": 484,
			"name": "白金台",
			"latitude": 35.637917,
			"longitude": 139.726133,
			"rent": 11.85,
			"color": "#bdb76b"
		},
		{
			"id": 485,
			"name": "東京",
			"latitude": 35.681382,
			"longitude": 139.766084,
			"rent": 12,
			"color": "#ffff00"
		},
		{
			"id": 486,
			"name": "半蔵門",
			"latitude": 35.685703,
			"longitude": 139.741644,
			"rent": 12,
			"color": "#ffff00"
		},
		{
			"id": 487,
			"name": "麹町",
			"latitude": 35.684006,
			"longitude": 139.737613,
			"rent": 12.1,
			"color": "#ffff00"
		},
		{
			"id": 488,
			"name": "信濃町",
			"latitude": 35.68009,
			"longitude": 139.7202,
			"rent": 12.1,
			"color": "#ffff00"
		},
		{
			"id": 489,
			"name": "乃木坂",
			"latitude": 35.666572,
			"longitude": 139.726215,
			"rent": 12.1,
			"color": "#ffff00"
		},
		{
			"id": 490,
			"name": "麻布十番",
			"latitude": 35.6563901467552,
			"longitude": 139.73650493659,
			"rent": 12.2,
			"color": "#ffff00"
		},
		{
			"id": 491,
			"name": "淡路町",
			"latitude": 35.6951394459061,
			"longitude": 139.766835335176,
			"rent": 12.35,
			"color": "#ffff00"
		},
		{
			"id": 492,
			"name": "明治神宮前",
			"latitude": 35.669071,
			"longitude": 139.703995,
			"rent": 12.35,
			"color": "#ffff00"
		},
		{
			"id": 493,
			"name": "神谷町",
			"latitude": 35.662978,
			"longitude": 139.745069,
			"rent": 12.4,
			"color": "#ffff00"
		},
		{
			"id": 494,
			"name": "六本木",
			"latitude": 35.6639901963109,
			"longitude": 139.731414795387,
			"rent": 12.4,
			"color": "#ffff00"
		},
		{
			"id": 495,
			"name": "西武新宿",
			"latitude": 35.696254,
			"longitude": 139.7,
			"rent": 12.5,
			"color": "#ffff00"
		},
		{
			"id": 496,
			"name": "千駄ケ谷",
			"latitude": 35.68123,
			"longitude": 139.7116,
			"rent": 12.5,
			"color": "#ffff00"
		},
		{
			"id": 497,
			"name": "大手町",
			"latitude": 35.684801,
			"longitude": 139.766086,
			"rent": 12.5,
			"color": "#ffff00"
		},
		{
			"id": 498,
			"name": "永田町",
			"latitude": 35.678757,
			"longitude": 139.740258,
			"rent": 12.6,
			"color": "#ffff00"
		},
		{
			"id": 499,
			"name": "国立競技場",
			"latitude": 35.6801622315799,
			"longitude": 139.713748970534,
			"rent": 12.6,
			"color": "#ffff00"
		},
		{
			"id": 500,
			"name": "青山一丁目",
			"latitude": 35.67276462,
			"longitude": 139.7239043,
			"rent": 12.8,
			"color": "#ffff00"
		},
		{
			"id": 501,
			"name": "虎ノ門ヒルズ",
			"latitude": 35.667444,
			"longitude": 139.747778,
			"rent": 13.2,
			"color": "#ff8c00"
		},
		{
			"id": 502,
			"name": "赤坂見附",
			"latitude": 35.677021,
			"longitude": 139.737047,
			"rent": 13.2,
			"color": "#ff8c00"
		},
		{
			"id": 503,
			"name": "外苑前",
			"latitude": 35.670527,
			"longitude": 139.717857,
			"rent": 13.5,
			"color": "#ff8c00"
		},
		{
			"id": 504,
			"name": "溜池山王",
			"latitude": 35.673621,
			"longitude": 139.741419,
			"rent": 13.7,
			"color": "#ff8c00"
		},
		{
			"id": 505,
			"name": "六本木一丁目",
			"latitude": 35.665595,
			"longitude": 139.739,
			"rent": 13.7,
			"color": "#ff8c00"
		},
		{
			"id": 506,
			"name": "赤坂",
			"latitude": 35.672371,
			"longitude": 139.736539,
			"rent": 14,
			"color": "#ff4500"
		},
		{
			"id": 507,
			"name": "小川町",
			"latitude": 35.6951394459061,
			"longitude": 139.766835335176,
			"rent": 14.1,
			"color": "#ff4500"
		},
		{
			"id": 508,
			"name": "国会議事堂前",
			"latitude": 35.67393,
			"longitude": 139.745219,
			"rent": 14.2,
			"color": "#ff4500"
		},
		{
			"id": 509,
			"name": "市ヶ谷",
			"latitude": 35.6912107320703,
			"longitude": 139.73649022635,
			"rent": 14.9,
			"color": "#ff4500"
		}
	]
}
