{
	"locations": [
		{
			"id": 1,
			"cp": 7.52191339987129,
			"name": "登戸",
			"latitude": 35.6207850319793,
			"longitude": 139.569301432929,
			"rent": 6.1,
			"time": 16,
			"color": "#db7093"
		},
		{
			"id": 2,
			"cp": 7.30664736080032,
			"name": "阿佐ケ谷",
			"latitude": 35.70482,
			"longitude": 139.6359,
			"rent": 7.6,
			"time": 8,
			"color": "#db7093"
		},
		{
			"id": 3,
			"cp": 7.27686230034482,
			"name": "聖蹟桜ヶ丘",
			"latitude": 35.65079,
			"longitude": 139.446933,
			"rent": 4.7,
			"time": 24,
			"color": "#db7093"
		},
		{
			"id": 4,
			"cp": 7.25570619981572,
			"name": "桜上水",
			"latitude": 35.6674481,
			"longitude": 139.6318829,
			"rent": 7.5,
			"time": 12,
			"color": "#db7093"
		},
		{
			"id": 5,
			"cp": 7.25570619981572,
			"name": "梅ヶ丘",
			"latitude": 35.6560169,
			"longitude": 139.6536376,
			"rent": 7.5,
			"time": 12,
			"color": "#db7093"
		},
		{
			"id": 6,
			"cp": 7.23059102277215,
			"name": "荻窪",
			"latitude": 35.70463,
			"longitude": 139.62,
			"rent": 7.6,
			"time": 11,
			"color": "#db7093"
		},
		{
			"id": 7,
			"cp": 7.23035408713966,
			"name": "上北沢",
			"latitude": 35.6688276,
			"longitude": 139.6233971,
			"rent": 7.5,
			"time": 13,
			"color": "#db7093"
		},
		{
			"id": 8,
			"cp": 7.20547584572858,
			"name": "高円寺",
			"latitude": 35.70539,
			"longitude": 139.6499,
			"rent": 7.7,
			"time": 10,
			"color": "#db7093"
		},
		{
			"id": 9,
			"cp": 7.20238092744165,
			"name": "豪徳寺",
			"latitude": 35.6537321924523,
			"longitude": 139.647326107369,
			"rent": 7,
			"time": 15,
			"color": "#db7093"
		},
		{
			"id": 10,
			"cp": 7.13013031459787,
			"name": "下北沢",
			"latitude": 35.6615464979642,
			"longitude": 139.666900156298,
			"rent": 8,
			"time": 7,
			"color": "#db7093"
		},
		{
			"id": 11,
			"cp": 7.10525207318678,
			"name": "東中野",
			"latitude": 35.7061216972349,
			"longitude": 139.68379064463,
			"rent": 8.2,
			"time": 4,
			"color": "#ffc0cb"
		},
		{
			"id": 12,
			"cp": 7.09066872244321,
			"name": "生田",
			"latitude": 35.615015,
			"longitude": 139.542215,
			"rent": 5.5,
			"time": 22,
			"color": "#ffc0cb"
		},
		{
			"id": 13,
			"cp": 7.08835749396383,
			"name": "八幡山",
			"latitude": 35.6698304,
			"longitude": 139.6161352,
			"rent": 7.5,
			"time": 14,
			"color": "#ffc0cb"
		},
		{
			"id": 14,
			"cp": 7.06770779239465,
			"name": "鷺ノ宮",
			"latitude": 35.722605,
			"longitude": 139.63892,
			"rent": 7,
			"time": 16,
			"color": "#ffc0cb"
		},
		{
			"id": 15,
			"cp": 7.0540739765697,
			"name": "新高円寺",
			"latitude": 35.697985,
			"longitude": 139.648068,
			"rent": 8,
			"time": 10,
			"color": "#ffc0cb"
		},
		{
			"id": 16,
			"cp": 7.0540739765697,
			"name": "世田谷代田",
			"latitude": 35.658174,
			"longitude": 139.661252,
			"rent": 8,
			"time": 10,
			"color": "#ffc0cb"
		},
		{
			"id": 17,
			"cp": 7.05097905828277,
			"name": "吉祥寺",
			"latitude": 35.70211,
			"longitude": 139.5805,
			"rent": 7.3,
			"time": 15,
			"color": "#ffc0cb"
		},
		{
			"id": 18,
			"cp": 7.02848492826116,
			"name": "西荻窪",
			"latitude": 35.70384,
			"longitude": 139.5994,
			"rent": 7.9,
			"time": 13,
			"color": "#ffc0cb"
		},
		{
			"id": 19,
			"cp": 7.01874570077236,
			"name": "向ヶ丘遊園",
			"latitude": 35.617241,
			"longitude": 139.564758,
			"rent": 6.1,
			"time": 20,
			"color": "#ffc0cb"
		},
		{
			"id": 20,
			"cp": 7.00408055811505,
			"name": "中野",
			"latitude": 35.70603,
			"longitude": 139.6657,
			"rent": 8.3,
			"time": 6,
			"color": "#ffc0cb"
		},
		{
			"id": 21,
			"cp": 7.00336975121759,
			"name": "南阿佐ケ谷",
			"latitude": 35.699624,
			"longitude": 139.63576,
			"rent": 8,
			"time": 12,
			"color": "#ffb6c1"
		},
		{
			"id": 22,
			"cp": 6.98709812915839,
			"name": "仙川",
			"latitude": 35.662307,
			"longitude": 139.584897,
			"rent": 6.9,
			"time": 17,
			"color": "#ffb6c1"
		},
		{
			"id": 23,
			"cp": 6.97825457417402,
			"name": "下高井戸",
			"latitude": 35.6661402,
			"longitude": 139.6414073,
			"rent": 8.1,
			"time": 11,
			"color": "#ffb6c1"
		},
		{
			"id": 24,
			"cp": 6.9667732129554,
			"name": "千歳烏山",
			"latitude": 35.668212,
			"longitude": 139.601139,
			"rent": 7.2,
			"time": 16,
			"color": "#ffb6c1"
		},
		{
			"id": 25,
			"cp": 6.95337633276293,
			"name": "東高円寺",
			"latitude": 35.697802,
			"longitude": 139.657822,
			"rent": 8.3,
			"time": 8,
			"color": "#ffb6c1"
		},
		{
			"id": 26,
			"cp": 6.93742713646964,
			"name": "柴崎",
			"latitude": 35.6540817,
			"longitude": 139.5666085,
			"rent": 6.5,
			"time": 19,
			"color": "#ffb6c1"
		},
		{
			"id": 27,
			"cp": 6.93695562480495,
			"name": "赤羽",
			"latitude": 35.778051,
			"longitude": 139.720856,
			"rent": 7.8,
			"time": 14,
			"color": "#ffb6c1"
		},
		{
			"id": 28,
			"cp": 6.92359127230744,
			"name": "読売ランド前",
			"latitude": 35.614632,
			"longitude": 139.52825,
			"rent": 5.4,
			"time": 24,
			"color": "#66cdaa"
		},
		{
			"id": 29,
			"cp": 6.91630592323578,
			"name": "千川",
			"latitude": 35.738418,
			"longitude": 139.689157,
			"rent": 7.3,
			"time": 16,
			"color": "#66cdaa"
		},
		{
			"id": 30,
			"cp": 6.91004095003104,
			"name": "つつじヶ丘",
			"latitude": 35.6579842,
			"longitude": 139.5750124,
			"rent": 6.8,
			"time": 18,
			"color": "#66cdaa"
		},
		{
			"id": 31,
			"cp": 6.90267210741082,
			"name": "明大前",
			"latitude": 35.6683488,
			"longitude": 139.6505541,
			"rent": 8.3,
			"time": 10,
			"color": "#66cdaa"
		},
		{
			"id": 32,
			"cp": 6.89957718912389,
			"name": "新江古田",
			"latitude": 35.732538,
			"longitude": 139.670653,
			"rent": 7.6,
			"time": 15,
			"color": "#66cdaa"
		},
		{
			"id": 33,
			"cp": 6.89957718912389,
			"name": "新板橋",
			"latitude": 35.748802,
			"longitude": 139.719604,
			"rent": 7.6,
			"time": 15,
			"color": "#66cdaa"
		},
		{
			"id": 34,
			"cp": 6.88648833508532,
			"name": "落合南長崎",
			"latitude": 35.723608,
			"longitude": 139.683303,
			"rent": 7.9,
			"time": 14,
			"color": "#66cdaa"
		},
		{
			"id": 35,
			"cp": 6.85220481769119,
			"name": "中井",
			"latitude": 35.715065,
			"longitude": 139.687264,
			"rent": 8.4,
			"time": 10,
			"color": "#66cdaa"
		},
		{
			"id": 36,
			"cp": 6.83569625999952,
			"name": "小竹向原",
			"latitude": 35.743803,
			"longitude": 139.678572,
			"rent": 7.2,
			"time": 17,
			"color": "#66cdaa"
		},
		{
			"id": 37,
			"cp": 6.82708964064762,
			"name": "東北沢",
			"latitude": 35.665609,
			"longitude": 139.673228,
			"rent": 8.5,
			"time": 9,
			"color": "#66cdaa"
		},
		{
			"id": 38,
			"cp": 6.81675924707121,
			"name": "方南町",
			"latitude": 35.683496,
			"longitude": 139.656498,
			"rent": 8.42,
			"time": 11,
			"color": "#66cdaa"
		},
		{
			"id": 39,
			"cp": 6.78786498412545,
			"name": "新百合ヶ丘",
			"latitude": 35.603805,
			"longitude": 139.507605,
			"rent": 6.1,
			"time": 22,
			"color": "#66cdaa"
		},
		{
			"id": 40,
			"cp": 6.77626694747927,
			"name": "東池袋",
			"latitude": 35.725362,
			"longitude": 139.720435,
			"rent": 8.45,
			"time": 12,
			"color": "#66cdaa"
		},
		{
			"id": 41,
			"cp": 6.77614847966303,
			"name": "大塚",
			"latitude": 35.73159,
			"longitude": 139.7293,
			"rent": 8.4,
			"time": 13,
			"color": "#66cdaa"
		},
		{
			"id": 42,
			"cp": 6.75021462719998,
			"name": "和光市",
			"latitude": 35.788515,
			"longitude": 139.612343,
			"rent": 6.4,
			"time": 21,
			"color": "#66cdaa"
		},
		{
			"id": 43,
			"cp": 6.73340543601235,
			"name": "三鷹",
			"latitude": 35.70271,
			"longitude": 139.5608,
			"rent": 7.15,
			"time": 18,
			"color": "#66cdaa"
		},
		{
			"id": 44,
			"cp": 6.71903292538592,
			"name": "百合ヶ丘",
			"latitude": 35.608963,
			"longitude": 139.515901,
			"rent": 5.4,
			"time": 26,
			"color": "#66cdaa"
		},
		{
			"id": 45,
			"cp": 6.70817179115254,
			"name": "千歳船橋",
			"latitude": 35.64735,
			"longitude": 139.62408,
			"rent": 7.2,
			"time": 18,
			"color": "#66cdaa"
		},
		{
			"id": 46,
			"cp": 6.6869304046862,
			"name": "調布",
			"latitude": 35.651788,
			"longitude": 139.5447823,
			"rent": 6.3,
			"time": 22,
			"color": "#66cdaa"
		},
		{
			"id": 47,
			"cp": 6.68429439084064,
			"name": "経堂",
			"latitude": 35.651316,
			"longitude": 139.636437,
			"rent": 7.5,
			"time": 17,
			"color": "#66cdaa"
		},
		{
			"id": 48,
			"cp": 6.67851325669952,
			"name": "鶴川",
			"latitude": 35.58313,
			"longitude": 139.480895,
			"rent": 5.1,
			"time": 28,
			"color": "#66cdaa"
		},
		{
			"id": 49,
			"cp": 6.66396947463764,
			"name": "松原",
			"latitude": 35.66005,
			"longitude": 139.642,
			"rent": 7.8,
			"time": 16,
			"color": "#66cdaa"
		},
		{
			"id": 50,
			"cp": 6.65770450143291,
			"name": "山下",
			"latitude": 35.65373,
			"longitude": 139.6473,
			"rent": 7.3,
			"time": 18,
			"color": "#66cdaa"
		},
		{
			"id": 51,
			"cp": 6.64928004776073,
			"name": "国領",
			"latitude": 35.6501355,
			"longitude": 139.5583464,
			"rent": 6.6,
			"time": 21,
			"color": "#66cdaa"
		},
		{
			"id": 52,
			"cp": 6.63382710112101,
			"name": "練馬",
			"latitude": 35.73782,
			"longitude": 139.653566,
			"rent": 7.6,
			"time": 17,
			"color": "#66cdaa"
		},
		{
			"id": 53,
			"cp": 6.58415610843226,
			"name": "氷川台",
			"latitude": 35.749822,
			"longitude": 139.665023,
			"rent": 7.2,
			"time": 19,
			"color": "#66cdaa"
		},
		{
			"id": 54,
			"cp": 6.58368459676757,
			"name": "護国寺",
			"latitude": 35.719044,
			"longitude": 139.72754,
			"rent": 8.5,
			"time": 14,
			"color": "#66cdaa"
		},
		{
			"id": 55,
			"cp": 6.56454009329572,
			"name": "下井草",
			"latitude": 35.723955,
			"longitude": 139.624327,
			"rent": 7,
			"time": 20,
			"color": "#66cdaa"
		},
		{
			"id": 56,
			"cp": 6.56454009329572,
			"name": "地下鉄成増",
			"latitude": 35.776557,
			"longitude": 139.631497,
			"rent": 7,
			"time": 20,
			"color": "#66cdaa"
		},
		{
			"id": 57,
			"cp": 6.5584389262654,
			"name": "布田",
			"latitude": 35.6498499,
			"longitude": 139.5518261,
			"rent": 6.78,
			"time": 21,
			"color": "#66cdaa"
		},
		{
			"id": 58,
			"cp": 6.54834546832148,
			"name": "祖師ヶ谷大蔵",
			"latitude": 35.6433164,
			"longitude": 139.6095789,
			"rent": 6.8,
			"time": 21,
			"color": "#66cdaa"
		},
		{
			"id": 59,
			"cp": 6.51716376650742,
			"name": "田無",
			"latitude": 35.727366,
			"longitude": 139.539253,
			"rent": 5.8,
			"time": 26,
			"color": "#66cdaa"
		},
		{
			"id": 60,
			"cp": 6.5140728035761,
			"name": "豊島園",
			"latitude": 35.7419142116061,
			"longitude": 139.649146646261,
			"rent": 7.1,
			"time": 20,
			"color": "#66cdaa"
		},
		{
			"id": 61,
			"cp": 6.49787817860185,
			"name": "川口",
			"latitude": 35.801922,
			"longitude": 139.717583,
			"rent": 6.9,
			"time": 21,
			"color": "#66cdaa"
		},
		{
			"id": 62,
			"cp": 6.47557830721141,
			"name": "武蔵境",
			"latitude": 35.70216,
			"longitude": 139.5447,
			"rent": 6.5,
			"time": 23,
			"color": "#66cdaa"
		},
		{
			"id": 63,
			"cp": 6.47060522650707,
			"name": "巣鴨",
			"latitude": 35.73349,
			"longitude": 139.7393,
			"rent": 8.45,
			"time": 15,
			"color": "#66cdaa"
		},
		{
			"id": 64,
			"cp": 6.46669647678779,
			"name": "柿生",
			"latitude": 35.589831,
			"longitude": 139.497945,
			"rent": 5.9,
			"time": 26,
			"color": "#66cdaa"
		},
		{
			"id": 65,
			"cp": 6.44741088888223,
			"name": "平和台",
			"latitude": 35.757863,
			"longitude": 139.653762,
			"rent": 7,
			"time": 21,
			"color": "#66cdaa"
		},
		{
			"id": 66,
			"cp": 6.43275423927338,
			"name": "沼袋",
			"latitude": 35.719458,
			"longitude": 139.663841,
			"rent": 7.5,
			"time": 19,
			"color": "#66cdaa"
		},
		{
			"id": 67,
			"cp": 6.42511101749179,
			"name": "府中",
			"latitude": 35.672195,
			"longitude": 139.480469,
			"rent": 6.6,
			"time": 23,
			"color": "#66cdaa"
		},
		{
			"id": 68,
			"cp": 6.41622918706817,
			"name": "南浦和",
			"latitude": 35.847681,
			"longitude": 139.66915,
			"rent": 6,
			"time": 26,
			"color": "#66cdaa"
		},
		{
			"id": 69,
			"cp": 6.38412666636844,
			"name": "上井草",
			"latitude": 35.72512,
			"longitude": 139.603568,
			"rent": 6.9,
			"time": 22,
			"color": "#66cdaa"
		},
		{
			"id": 70,
			"cp": 6.38412666636844,
			"name": "上石神井",
			"latitude": 35.726245,
			"longitude": 139.59208,
			"rent": 6.9,
			"time": 22,
			"color": "#66cdaa"
		},
		{
			"id": 71,
			"cp": 6.38412666636844,
			"name": "練馬春日町",
			"latitude": 35.751135,
			"longitude": 139.641058,
			"rent": 6.9,
			"time": 22,
			"color": "#66cdaa"
		},
		{
			"id": 72,
			"cp": 6.36917795572172,
			"name": "武蔵野台",
			"latitude": 35.6641996,
			"longitude": 139.5110719,
			"rent": 5.9,
			"time": 27,
			"color": "#66cdaa"
		},
		{
			"id": 73,
			"cp": 6.34647630944297,
			"name": "都立家政",
			"latitude": 35.722333,
			"longitude": 139.644586,
			"rent": 7.2,
			"time": 21,
			"color": "#66cdaa"
		},
		{
			"id": 74,
			"cp": 6.33870610562078,
			"name": "井荻",
			"latitude": 35.724546,
			"longitude": 139.614661,
			"rent": 6.99,
			"time": 22,
			"color": "#66cdaa"
		},
		{
			"id": 75,
			"cp": 6.32647552820352,
			"name": "東村山",
			"latitude": 35.760471,
			"longitude": 139.46585,
			"rent": 4.8,
			"time": 34,
			"color": "#66cdaa"
		},
		{
			"id": 76,
			"cp": 6.32524222866213,
			"name": "花小金井",
			"latitude": 35.726129,
			"longitude": 139.513228,
			"rent": 5.8,
			"time": 28,
			"color": "#66cdaa"
		},
		{
			"id": 77,
			"cp": 6.3187106660021,
			"name": "西武柳沢",
			"latitude": 35.728638,
			"longitude": 139.55261,
			"rent": 6,
			"time": 27,
			"color": "#66cdaa"
		},
		{
			"id": 78,
			"cp": 6.31798379567193,
			"name": "成城学園前",
			"latitude": 35.640053,
			"longitude": 139.598741,
			"rent": 6.6,
			"time": 24,
			"color": "#66cdaa"
		},
		{
			"id": 79,
			"cp": 6.31529460762891,
			"name": "東小金井",
			"latitude": 35.70174,
			"longitude": 139.5248,
			"rent": 6.2,
			"time": 26,
			"color": "#66cdaa"
		},
		{
			"id": 80,
			"cp": 6.31220364469759,
			"name": "野方",
			"latitude": 35.719658,
			"longitude": 139.652733,
			"rent": 7.5,
			"time": 20,
			"color": "#66cdaa"
		},
		{
			"id": 81,
			"cp": 6.29600901972335,
			"name": "宮の坂",
			"latitude": 35.64797,
			"longitude": 139.645,
			"rent": 7.3,
			"time": 21,
			"color": "#66cdaa"
		},
		{
			"id": 82,
			"cp": 6.2675165059523,
			"name": "光が丘",
			"latitude": 35.758526,
			"longitude": 139.628603,
			"rent": 6.7,
			"time": 24,
			"color": "#66cdaa"
		},
		{
			"id": 83,
			"cp": 6.22430764922288,
			"name": "武蔵小金井",
			"latitude": 35.70135,
			"longitude": 139.5065,
			"rent": 6,
			"time": 28,
			"color": "#66cdaa"
		},
		{
			"id": 84,
			"cp": 6.21777608656284,
			"name": "北浦和",
			"latitude": 35.872156,
			"longitude": 139.646196,
			"rent": 6.2,
			"time": 27,
			"color": "#66cdaa"
		},
		{
			"id": 85,
			"cp": 6.19181557137286,
			"name": "西川口",
			"latitude": 35.815725,
			"longitude": 139.704364,
			"rent": 6.85,
			"time": 24,
			"color": "#66cdaa"
		},
		{
			"id": 86,
			"cp": 6.17384035950325,
			"name": "狛江",
			"latitude": 35.63217,
			"longitude": 139.577413,
			"rent": 6.1,
			"time": 28,
			"color": "#66cdaa"
		},
		{
			"id": 87,
			"cp": 6.16658192651305,
			"name": "地下鉄赤塚",
			"latitude": 35.77053,
			"longitude": 139.644543,
			"rent": 6.9,
			"time": 24,
			"color": "#66cdaa"
		},
		{
			"id": 88,
			"cp": 6.16389273847004,
			"name": "喜多見",
			"latitude": 35.636692,
			"longitude": 139.587098,
			"rent": 6.5,
			"time": 26,
			"color": "#66cdaa"
		},
		{
			"id": 89,
			"cp": 6.15637174322694,
			"name": "小田相模原",
			"latitude": 35.515134,
			"longitude": 139.422596,
			"rent": 4.85,
			"time": 36,
			"color": "#66cdaa"
		},
		{
			"id": 90,
			"cp": 6.14560791603544,
			"name": "小平",
			"latitude": 35.737024,
			"longitude": 139.488294,
			"rent": 5.8,
			"time": 30,
			"color": "#66cdaa"
		},
		{
			"id": 91,
			"cp": 6.14460715056447,
			"name": "東十条",
			"latitude": 35.762947,
			"longitude": 139.727694,
			"rent": 7.6,
			"time": 21,
			"color": "#66cdaa"
		},
		{
			"id": 92,
			"cp": 6.12460636932502,
			"name": "所沢",
			"latitude": 35.786201,
			"longitude": 139.473916,
			"rent": 5.2,
			"time": 34,
			"color": "#66cdaa"
		},
		{
			"id": 93,
			"cp": 6.11342544875041,
			"name": "蕨",
			"latitude": 35.828148,
			"longitude": 139.690443,
			"rent": 6.6,
			"time": 26,
			"color": "#6495ED"
		},
		{
			"id": 94,
			"cp": 6.10029943857017,
			"name": "久米川",
			"latitude": 35.750022,
			"longitude": 139.471995,
			"rent": 5.4,
			"time": 33,
			"color": "#6495ED"
		},
		{
			"id": 95,
			"cp": 6.07948321123599,
			"name": "西日暮里",
			"latitude": 35.732135,
			"longitude": 139.766787,
			"rent": 8.2,
			"time": 19,
			"color": "#6495ED"
		},
		{
			"id": 96,
			"cp": 6.04467333659619,
			"name": "国分寺",
			"latitude": 35.70026,
			"longitude": 139.4803,
			"rent": 6,
			"time": 30,
			"color": "#6495ED"
		},
		{
			"id": 97,
			"cp": 6.04467333659619,
			"name": "和泉多摩川",
			"latitude": 35.627324,
			"longitude": 139.573709,
			"rent": 6,
			"time": 30,
			"color": "#6495ED"
		},
		{
			"id": 98,
			"cp": 6.04367257112522,
			"name": "武蔵小杉",
			"latitude": 35.5765749341184,
			"longitude": 139.659445071592,
			"rent": 7.8,
			"time": 21,
			"color": "#6495ED"
		},
		{
			"id": 99,
			"cp": 5.99420604687656,
			"name": "中野島",
			"latitude": 35.630135,
			"longitude": 139.5501,
			"rent": 6.1,
			"time": 30,
			"color": "#6495ED"
		},
		{
			"id": 100,
			"cp": 5.94985375961277,
			"name": "日野",
			"latitude": 35.67925,
			"longitude": 139.394,
			"rent": 5.4,
			"time": 35,
			"color": "#6495ED"
		},
		{
			"id": 101,
			"cp": 5.94273799168596,
			"name": "上町",
			"latitude": 35.64341,
			"longitude": 139.6466,
			"rent": 8,
			"time": 21,
			"color": "#6495ED"
		},
		{
			"id": 102,
			"cp": 5.89622226859912,
			"name": "豊田",
			"latitude": 35.6595,
			"longitude": 139.3815,
			"rent": 5.1,
			"time": 38,
			"color": "#6495ED"
		},
		{
			"id": 103,
			"cp": 5.88217724402241,
			"name": "要町",
			"latitude": 35.73323,
			"longitude": 139.698715,
			"rent": 8.12,
			"time": 21,
			"color": "#6495ED"
		},
		{
			"id": 104,
			"cp": 5.88063999015018,
			"name": "さいたま新都心",
			"latitude": 35.893867,
			"longitude": 139.633587,
			"rent": 6.5,
			"time": 29,
			"color": "#6495ED"
		},
		{
			"id": 105,
			"cp": 5.8457549788795,
			"name": "相武台前",
			"latitude": 35.499147,
			"longitude": 139.408401,
			"rent": 5.2,
			"time": 38,
			"color": "#6495ED"
		},
		{
			"id": 106,
			"cp": 5.81036485432853,
			"name": "芦花公園",
			"latitude": 35.670542,
			"longitude": 139.608224,
			"rent": 7.4,
			"time": 25,
			"color": "#6495ED"
		},
		{
			"id": 107,
			"cp": 5.79233688799806,
			"name": "船堀",
			"latitude": 35.683732,
			"longitude": 139.864333,
			"rent": 6.5,
			"time": 30,
			"color": "#6495ED"
		},
		{
			"id": 108,
			"cp": 5.79233688799806,
			"name": "町田",
			"latitude": 35.541975372676,
			"longitude": 139.445421095006,
			"rent": 6.5,
			"time": 30,
			"color": "#6495ED"
		},
		{
			"id": 109,
			"cp": 5.77010204174625,
			"name": "武蔵関",
			"latitude": 35.727547,
			"longitude": 139.576889,
			"rent": 6.9,
			"time": 28,
			"color": "#6495ED"
		},
		{
			"id": 110,
			"cp": 5.76032723118263,
			"name": "高尾",
			"latitude": 35.64223,
			"longitude": 139.2818,
			"rent": 4.6,
			"time": 45,
			"color": "#6495ED"
		},
		{
			"id": 111,
			"cp": 5.74186959827843,
			"name": "小岩",
			"latitude": 35.73296,
			"longitude": 139.8817,
			"rent": 6.6,
			"time": 30,
			"color": "#6495ED"
		},
		{
			"id": 112,
			"cp": 5.74186959827843,
			"name": "立川",
			"latitude": 35.6979,
			"longitude": 139.414,
			"rent": 6.6,
			"time": 30,
			"color": "#6495ED"
		},
		{
			"id": 113,
			"cp": 5.72231303448113,
			"name": "座間",
			"latitude": 35.480691,
			"longitude": 139.399932,
			"rent": 5.2,
			"time": 40,
			"color": "#6495ED"
		},
		{
			"id": 114,
			"cp": 5.72086805156801,
			"name": "西国分寺",
			"latitude": 35.69977,
			"longitude": 139.4657,
			"rent": 6,
			"time": 34,
			"color": "#6495ED"
		},
		{
			"id": 115,
			"cp": 5.70953718293297,
			"name": "航空公園",
			"latitude": 35.79841,
			"longitude": 139.465699,
			"rent": 5.6,
			"time": 37,
			"color": "#6495ED"
		},
		{
			"id": 116,
			"cp": 5.70943027488927,
			"name": "二子玉川",
			"latitude": 35.611499,
			"longitude": 139.626624,
			"rent": 7.6,
			"time": 25,
			"color": "#6495ED"
		},
		{
			"id": 117,
			"cp": 5.62464021673231,
			"name": "大宮",
			"latitude": 35.906295,
			"longitude": 139.623999,
			"rent": 6.5,
			"time": 32,
			"color": "#6495ED"
		},
		{
			"id": 118,
			"cp": 5.62137845504188,
			"name": "入曽",
			"latitude": 35.832486,
			"longitude": 139.427293,
			"rent": 5.4,
			"time": 40,
			"color": "#6495ED"
		},
		{
			"id": 119,
			"cp": 5.61396776733071,
			"name": "西八王子",
			"latitude": 35.65678,
			"longitude": 139.3125,
			"rent": 5.3,
			"time": 41,
			"color": "#6495ED"
		},
		{
			"id": 120,
			"cp": 5.61144173959716,
			"name": "王子",
			"latitude": 35.752474,
			"longitude": 139.738139,
			"rent": 8,
			"time": 24,
			"color": "#6495ED"
		},
		{
			"id": 121,
			"cp": 5.61144173959716,
			"name": "世田谷",
			"latitude": 35.64345,
			"longitude": 139.6506,
			"rent": 8,
			"time": 24,
			"color": "#6495ED"
		},
		{
			"id": 122,
			"cp": 5.59341853028137,
			"name": "国立",
			"latitude": 35.699,
			"longitude": 139.4464,
			"rent": 5.7,
			"time": 38,
			"color": "#6495ED"
		},
		{
			"id": 123,
			"cp": 5.56837871977845,
			"name": "町屋",
			"latitude": 35.742268,
			"longitude": 139.781435,
			"rent": 7.68,
			"time": 26,
			"color": "#6495ED"
		},
		{
			"id": 124,
			"cp": 5.56350047761108,
			"name": "白楽",
			"latitude": 35.4897,
			"longitude": 139.6279,
			"rent": 5.4,
			"time": 41,
			"color": "#6495ED"
		},
		{
			"id": 125,
			"cp": 5.5631290674508,
			"name": "新狭山",
			"latitude": 35.873993,
			"longitude": 139.433499,
			"rent": 4.9,
			"time": 46,
			"color": "#6495ED"
		},
		{
			"id": 126,
			"cp": 5.5273689621128,
			"name": "北千住",
			"latitude": 35.749412,
			"longitude": 139.805108,
			"rent": 7.2,
			"time": 29,
			"color": "#6495ED"
		},
		{
			"id": 127,
			"cp": 5.51309927938791,
			"name": "東海大学前",
			"latitude": 35.373151,
			"longitude": 139.271236,
			"rent": 4.2,
			"time": 59,
			"color": "#6495ED"
		},
		{
			"id": 128,
			"cp": 5.50766802405446,
			"name": "稲城長沼",
			"latitude": 35.6444878651794,
			"longitude": 139.501989050768,
			"rent": 6,
			"time": 37,
			"color": "#6495ED"
		},
		{
			"id": 129,
			"cp": 5.50089102515066,
			"name": "鶴巻温泉",
			"latitude": 35.381131,
			"longitude": 139.277813,
			"rent": 4.4,
			"time": 55,
			"color": "#6495ED"
		},
		{
			"id": 130,
			"cp": 5.46853160296988,
			"name": "葛西",
			"latitude": 35.663523,
			"longitude": 139.872694,
			"rent": 6.5,
			"time": 34,
			"color": "#6495ED"
		},
		{
			"id": 131,
			"cp": 5.46623251281889,
			"name": "日暮里",
			"latitude": 35.72777,
			"longitude": 139.771,
			"rent": 8.5,
			"time": 23,
			"color": "#6495ED"
		},
		{
			"id": 132,
			"cp": 5.41868343606355,
			"name": "すずかけ台",
			"latitude": 35.516963,
			"longitude": 139.481467,
			"rent": 5.1,
			"time": 47,
			"color": "#6495ED"
		},
		{
			"id": 133,
			"cp": 5.40662653657152,
			"name": "馬込",
			"latitude": 35.596435,
			"longitude": 139.711772,
			"rent": 8.2,
			"time": 25,
			"color": "#6495ED"
		},
		{
			"id": 134,
			"cp": 5.3774139287583,
			"name": "南大塚",
			"latitude": 35.889805,
			"longitude": 139.454314,
			"rent": 5.1,
			"time": 48,
			"color": "#6495ED"
		},
		{
			"id": 135,
			"cp": 5.37230376813418,
			"name": "一之江",
			"latitude": 35.686055,
			"longitude": 139.882934,
			"rent": 7,
			"time": 32,
			"color": "#6495ED"
		},
		{
			"id": 136,
			"cp": 5.36904200644375,
			"name": "八王子",
			"latitude": 35.65564,
			"longitude": 139.339,
			"rent": 5.9,
			"time": 40,
			"color": "#6495ED"
		},
		{
			"id": 137,
			"cp": 5.36759702353062,
			"name": "新小岩",
			"latitude": 35.71679,
			"longitude": 139.8583,
			"rent": 6.7,
			"time": 34,
			"color": "#6495ED"
		},
		{
			"id": 138,
			"cp": 5.35374716814878,
			"name": "二子新地",
			"latitude": 35.607125,
			"longitude": 139.622399,
			"rent": 7.2,
			"time": 31,
			"color": "#6495ED"
		},
		{
			"id": 139,
			"cp": 5.34329009277578,
			"name": "府中本町",
			"latitude": 35.666204,
			"longitude": 139.477203,
			"rent": 6.9,
			"time": 33,
			"color": "#6495ED"
		},
		{
			"id": 140,
			"cp": 5.31116402901295,
			"name": "矢川",
			"latitude": 35.684962,
			"longitude": 139.432123,
			"rent": 5.9,
			"time": 41,
			"color": "#6495ED"
		},
		{
			"id": 141,
			"cp": 5.30594881323639,
			"name": "松陰神社前",
			"latitude": 35.64399,
			"longitude": 139.6552,
			"rent": 8.2,
			"time": 26,
			"color": "#6495ED"
		},
		{
			"id": 142,
			"cp": 5.29377899325763,
			"name": "菊名",
			"latitude": 35.50964,
			"longitude": 139.6307,
			"rent": 6.7,
			"time": 35,
			"color": "#6495ED"
		},
		{
			"id": 143,
			"cp": 5.29282280305615,
			"name": "津田山",
			"latitude": 35.60427,
			"longitude": 139.600005,
			"rent": 7,
			"time": 33,
			"color": "#6495ED"
		},
		{
			"id": 144,
			"cp": 5.28766399080179,
			"name": "本蓮沼",
			"latitude": 35.768782,
			"longitude": 139.702324,
			"rent": 7.5,
			"time": 30,
			"color": "#6495ED"
		},
		{
			"id": 145,
			"cp": 5.27535681486028,
			"name": "伊勢原",
			"latitude": 35.396033,
			"longitude": 139.313504,
			"rent": 4.9,
			"time": 54,
			"color": "#6495ED"
		},
		{
			"id": 146,
			"cp": 5.26666244409137,
			"name": "瑞江",
			"latitude": 35.693318,
			"longitude": 139.89761,
			"rent": 6.9,
			"time": 34,
			"color": "#6495ED"
		},
		{
			"id": 147,
			"cp": 5.25889758188995,
			"name": "西馬込",
			"latitude": 35.586859,
			"longitude": 139.705942,
			"rent": 8.1,
			"time": 27,
			"color": "#6495ED"
		},
		{
			"id": 148,
			"cp": 5.25334286349671,
			"name": "海老名",
			"latitude": 35.452703,
			"longitude": 139.390906,
			"rent": 5.8,
			"time": 43,
			"color": "#6495ED"
		},
		{
			"id": 149,
			"cp": 5.2509574664276,
			"name": "南町田グランベリーパーク",
			"latitude": 35.511502,
			"longitude": 139.470318,
			"rent": 5.2,
			"time": 50,
			"color": "#6495ED"
		},
		{
			"id": 150,
			"cp": 5.23387738632068,
			"name": "つきみ野",
			"latitude": 35.510335,
			"longitude": 139.458029,
			"rent": 5.1,
			"time": 52,
			"color": "#6495ED"
		},
		{
			"id": 151,
			"cp": 5.21619515437174,
			"name": "綾瀬",
			"latitude": 35.762214,
			"longitude": 139.824914,
			"rent": 7,
			"time": 34,
			"color": "#6495ED"
		},
		{
			"id": 152,
			"cp": 5.21496185483036,
			"name": "板橋区役所前",
			"latitude": 35.751326,
			"longitude": 139.710166,
			"rent": 8,
			"time": 28,
			"color": "#6495ED"
		},
		{
			"id": 153,
			"cp": 5.21495774368063,
			"name": "江田",
			"latitude": 35.558646,
			"longitude": 139.551509,
			"rent": 6.58,
			"time": 37,
			"color": "#6495ED"
		},
		{
			"id": 154,
			"cp": 5.1918882236169,
			"name": "高津",
			"latitude": 35.603548,
			"longitude": 139.61747,
			"rent": 7.2,
			"time": 33,
			"color": "#6495ED"
		},
		{
			"id": 155,
			"cp": 5.18968021252436,
			"name": "南多摩",
			"latitude": 35.649093,
			"longitude": 139.489284,
			"rent": 6.5,
			"time": 38,
			"color": "#6495ED"
		},
		{
			"id": 156,
			"cp": 5.17409793407542,
			"name": "板橋本町",
			"latitude": 35.761339,
			"longitude": 139.705535,
			"rent": 7.9,
			"time": 29,
			"color": "#6495ED"
		},
		{
			"id": 157,
			"cp": 5.15240828405746,
			"name": "長津田",
			"latitude": 35.5316836756798,
			"longitude": 139.495262678246,
			"rent": 6,
			"time": 43,
			"color": "#6495ED"
		},
		{
			"id": 158,
			"cp": 5.13272935759088,
			"name": "東大島",
			"latitude": 35.690347,
			"longitude": 139.84596,
			"rent": 8.35,
			"time": 27,
			"color": "#6495ED"
		},
		{
			"id": 159,
			"cp": 5.11996731953605,
			"name": "志村坂上",
			"latitude": 35.775725,
			"longitude": 139.69538,
			"rent": 7.5,
			"time": 32,
			"color": "#6495ED"
		},
		{
			"id": 160,
			"cp": 5.10392970629745,
			"name": "あざみ野",
			"latitude": 35.568717,
			"longitude": 139.553556,
			"rent": 6.8,
			"time": 37,
			"color": "#6495ED"
		},
		{
			"id": 161,
			"cp": 5.09190983437913,
			"name": "梶が谷",
			"latitude": 35.594102,
			"longitude": 139.606008,
			"rent": 7.1,
			"time": 35,
			"color": "#6495ED"
		},
		{
			"id": 162,
			"cp": 5.07488674315679,
			"name": "志村三丁目",
			"latitude": 35.777464,
			"longitude": 139.685962,
			"rent": 7.28,
			"time": 34,
			"color": "#6495ED"
		},
		{
			"id": 163,
			"cp": 5.05392062523963,
			"name": "分倍河原",
			"latitude": 35.668557,
			"longitude": 139.468721,
			"rent": 6.3,
			"time": 42,
			"color": "#6495ED"
		},
		{
			"id": 164,
			"cp": 5.04908830754909,
			"name": "本川越",
			"latitude": 35.914113,
			"longitude": 139.481377,
			"rent": 5.6,
			"time": 50,
			"color": "#6495ED"
		},
		{
			"id": 165,
			"cp": 5.03827834336548,
			"name": "篠崎",
			"latitude": 35.706017,
			"longitude": 139.903698,
			"rent": 6.8,
			"time": 38,
			"color": "#6495ED"
		},
		{
			"id": 166,
			"cp": 5.02177514015137,
			"name": "中央林間",
			"latitude": 35.5078841060272,
			"longitude": 139.444117122329,
			"rent": 5.3,
			"time": 56,
			"color": "#6495ED"
		},
		{
			"id": 167,
			"cp": 5.01432599549324,
			"name": "溝の口",
			"latitude": 35.600032,
			"longitude": 139.610626,
			"rent": 7.4,
			"time": 34,
			"color": "#6495ED"
		},
		{
			"id": 168,
			"cp": 5.01304469850567,
			"name": "宮崎台",
			"latitude": 35.587325,
			"longitude": 139.591349,
			"rent": 6.85,
			"time": 38,
			"color": "#6495ED"
		},
		{
			"id": 169,
			"cp": 4.98154093772255,
			"name": "愛甲石田",
			"latitude": 35.417648,
			"longitude": 139.343945,
			"rent": 5.6,
			"time": 52,
			"color": "#6495ED"
		},
		{
			"id": 170,
			"cp": 4.95298604580037,
			"name": "綱島",
			"latitude": 35.53699,
			"longitude": 139.635,
			"rent": 6.5,
			"time": 42,
			"color": "#6495ED"
		},
		{
			"id": 171,
			"cp": 4.95285059566861,
			"name": "つくし野",
			"latitude": 35.527625,
			"longitude": 139.48512,
			"rent": 6.2,
			"time": 45,
			"color": "#6495ED"
		},
		{
			"id": 172,
			"cp": 4.91992314509609,
			"name": "蓮根",
			"latitude": 35.784174,
			"longitude": 139.67904,
			"rent": 7.3,
			"time": 36,
			"color": "#6495ED"
		},
		{
			"id": 173,
			"cp": 4.91483639896712,
			"name": "宮前平",
			"latitude": 35.584945,
			"longitude": 139.581919,
			"rent": 6.8,
			"time": 40,
			"color": "#6495ED"
		},
		{
			"id": 174,
			"cp": 4.91060116602825,
			"name": "西千葉",
			"latitude": 35.62258,
			"longitude": 140.1033,
			"rent": 5.2,
			"time": 67,
			"color": "#6495ED"
		},
		{
			"id": 175,
			"cp": 4.89004067550062,
			"name": "川崎",
			"latitude": 35.531328,
			"longitude": 139.696899,
			"rent": 7.5,
			"time": 35,
			"color": "#6495ED"
		},
		{
			"id": 176,
			"cp": 4.88877689400747,
			"name": "厚木",
			"latitude": 35.4431256246062,
			"longitude": 139.378191484138,
			"rent": 6.15,
			"time": 47,
			"color": "#6495ED"
		},
		{
			"id": 177,
			"cp": 4.86436910924749,
			"name": "西府",
			"latitude": 35.670967,
			"longitude": 139.457399,
			"rent": 6.9,
			"time": 40,
			"color": "#6495ED"
		},
		{
			"id": 178,
			"cp": 4.85695842153631,
			"name": "日吉",
			"latitude": 35.55306,
			"longitude": 139.6468,
			"rent": 6.8,
			"time": 41,
			"color": "#6495ED"
		},
		{
			"id": 179,
			"cp": 4.8496045457397,
			"name": "谷保",
			"latitude": 35.681424,
			"longitude": 139.446591,
			"rent": 6.6,
			"time": 43,
			"color": "#6495ED"
		},
		{
			"id": 180,
			"cp": 4.84957396168985,
			"name": "新子安",
			"latitude": 35.487106,
			"longitude": 139.65554,
			"rent": 6.5,
			"time": 44,
			"color": "#6495ED"
		},
		{
			"id": 181,
			"cp": 4.84721914867059,
			"name": "本厚木",
			"latitude": 35.439366,
			"longitude": 139.364303,
			"rent": 6,
			"time": 50,
			"color": "#6495ED"
		},
		{
			"id": 182,
			"cp": 6.87826773726471,
			"name": "目白",
			"latitude": 35.7212,
			"longitude": 139.7066,
			"rent": 8.7,
			"time": 3,
			"color": "#6495ED"
		},
		{
			"id": 183,
			"cp": 4.81390181952786,
			"name": "北綾瀬",
			"latitude": 35.7770135,
			"longitude": 139.8321012,
			"rent": 7,
			"time": 40,
			"color": "#6495ED"
		},
		{
			"id": 184,
			"cp": 4.81117553962716,
			"name": "尻手",
			"latitude": 35.531064,
			"longitude": 139.684389,
			"rent": 7.25,
			"time": 38,
			"color": "#6495ED"
		},
		{
			"id": 185,
			"cp": 4.80649113181669,
			"name": "鶴見",
			"latitude": 35.508565,
			"longitude": 139.676018,
			"rent": 6.9,
			"time": 41,
			"color": "#6495ED"
		},
		{
			"id": 186,
			"cp": 4.80144872650974,
			"name": "市が尾",
			"latitude": 35.551477,
			"longitude": 139.541388,
			"rent": 6.5,
			"time": 45,
			"color": "#6495ED"
		},
		{
			"id": 187,
			"cp": 6.85267868895617,
			"name": "新中野",
			"latitude": 35.697491,
			"longitude": 139.66903,
			"rent": 8.6,
			"time": 6,
			"color": "#6495ED"
		},
		{
			"id": 188,
			"cp": 4.78594189476735,
			"name": "西台",
			"latitude": 35.786926,
			"longitude": 139.673987,
			"rent": 7.3,
			"time": 38,
			"color": "#6495ED"
		},
		{
			"id": 189,
			"cp": 4.78299109360553,
			"name": "三ノ輪",
			"latitude": 35.729528,
			"longitude": 139.79133,
			"rent": 8.5,
			"time": 30,
			"color": "#6495ED"
		},
		{
			"id": 190,
			"cp": 6.82732657628011,
			"name": "代田橋",
			"latitude": 35.671071,
			"longitude": 139.659387,
			"rent": 8.6,
			"time": 7,
			"color": "#6495ED"
		},
		{
			"id": 191,
			"cp": 6.80244833486903,
			"name": "幡ヶ谷",
			"latitude": 35.6770576,
			"longitude": 139.6761859,
			"rent": 8.8,
			"time": 4,
			"color": "#6495ED"
		},
		{
			"id": 192,
			"cp": 6.80197446360405,
			"name": "中野富士見町",
			"latitude": 35.690514,
			"longitude": 139.666933,
			"rent": 8.6,
			"time": 8,
			"color": "#6495ED"
		},
		{
			"id": 193,
			"cp": 4.75602384209706,
			"name": "本八幡",
			"latitude": 35.7227774492546,
			"longitude": 139.926514446269,
			"rent": 7,
			"time": 41,
			"color": "#6495ED"
		},
		{
			"id": 194,
			"cp": 4.74866996630045,
			"name": "鷺沼",
			"latitude": 35.579579,
			"longitude": 139.573018,
			"rent": 6.8,
			"time": 43,
			"color": "#6495ED"
		},
		{
			"id": 195,
			"cp": 6.77721469000921,
			"name": "中野坂上",
			"latitude": 35.69792,
			"longitude": 139.68291,
			"rent": 8.85,
			"time": 4,
			"color": "#6495ED"
		},
		{
			"id": 196,
			"cp": 6.77709622219297,
			"name": "笹塚",
			"latitude": 35.673654,
			"longitude": 139.667136,
			"rent": 8.8,
			"time": 5,
			"color": "#6495ED"
		},
		{
			"id": 197,
			"cp": 4.73547460504772,
			"name": "矢向",
			"latitude": 35.538933,
			"longitude": 139.680422,
			"rent": 7.4,
			"time": 38,
			"color": "#6495ED"
		},
		{
			"id": 198,
			"cp": 4.73273479147808,
			"name": "大船",
			"latitude": 35.353435,
			"longitude": 139.531124,
			"rent": 6.3,
			"time": 49,
			"color": "#6495ED"
		},
		{
			"id": 199,
			"cp": 4.72021662794439,
			"name": "津田沼",
			"latitude": 35.69123,
			"longitude": 140.0205,
			"rent": 6,
			"time": 54,
			"color": "#6495ED"
		},
		{
			"id": 200,
			"cp": 6.72639199684086,
			"name": "代々木上原",
			"latitude": 35.669062,
			"longitude": 139.679678,
			"rent": 8.8,
			"time": 7,
			"color": "#6495ED"
		},
		{
			"id": 201,
			"cp": 6.72639199684086,
			"name": "中野新橋",
			"latitude": 35.692123,
			"longitude": 139.673997,
			"rent": 8.8,
			"time": 7,
			"color": "#6495ED"
		},
		{
			"id": 202,
			"cp": 4.70051414707048,
			"name": "たまプラーザ",
			"latitude": 35.577427,
			"longitude": 139.558447,
			"rent": 6.7,
			"time": 45,
			"color": "#6495ED"
		},
		{
			"id": 203,
			"cp": 4.70051414707048,
			"name": "西船橋",
			"latitude": 35.70745,
			"longitude": 139.9591,
			"rent": 6.7,
			"time": 45,
			"color": "#6495ED"
		},
		{
			"id": 204,
			"cp": 6.70151375542978,
			"name": "参宮橋",
			"latitude": 35.678714,
			"longitude": 139.693562,
			"rent": 9,
			"time": 4,
			"color": "#6495ED"
		},
		{
			"id": 205,
			"cp": 4.6850073153281,
			"name": "鹿島田",
			"latitude": 35.551331,
			"longitude": 139.675131,
			"rent": 7.5,
			"time": 38,
			"color": "#6495ED"
		},
		{
			"id": 206,
			"cp": 6.67663551401869,
			"name": "西新宿五丁目",
			"latitude": 35.6898804777869,
			"longitude": 139.684550859674,
			"rent": 9.2,
			"time": 1,
			"color": "#6495ED"
		},
		{
			"id": 207,
			"cp": 4.66249995036898,
			"name": "東神奈川",
			"latitude": 35.477951,
			"longitude": 139.633347,
			"rent": 7.3,
			"time": 40,
			"color": "#6495ED"
		},
		{
			"id": 208,
			"cp": 4.64770480281134,
			"name": "西高島平",
			"latitude": 35.791938,
			"longitude": 139.64589,
			"rent": 6.9,
			"time": 44,
			"color": "#6495ED"
		},
		{
			"id": 209,
			"cp": 4.64770480281134,
			"name": "田奈",
			"latitude": 35.536177,
			"longitude": 139.504835,
			"rent": 6.9,
			"time": 44,
			"color": "#6495ED"
		},
		{
			"id": 210,
			"cp": 6.60057917599052,
			"name": "高田馬場",
			"latitude": 35.712285,
			"longitude": 139.703782,
			"rent": 9.2,
			"time": 4,
			"color": "#6495ED"
		},
		{
			"id": 211,
			"cp": 4.61203266064936,
			"name": "高島平",
			"latitude": 35.788833,
			"longitude": 139.661172,
			"rent": 7.4,
			"time": 40,
			"color": "#6495ED"
		},
		{
			"id": 212,
			"cp": 4.61054292852185,
			"name": "磯子",
			"latitude": 35.399881,
			"longitude": 139.617916,
			"rent": 6.4,
			"time": 51,
			"color": "#6495ED"
		},
		{
			"id": 213,
			"cp": 6.57451625641701,
			"name": "早稲田",
			"latitude": 35.705723,
			"longitude": 139.721319,
			"rent": 8.9,
			"time": 11,
			"color": "#6495ED"
		},
		{
			"id": 214,
			"cp": 4.58628074698139,
			"name": "横浜",
			"latitude": 35.466188,
			"longitude": 139.622715,
			"rent": 8.4,
			"time": 33,
			"color": "#6495ED"
		},
		{
			"id": 215,
			"cp": 6.55034882190338,
			"name": "初台",
			"latitude": 35.6809863,
			"longitude": 139.6861815,
			"rent": 9.4,
			"time": 2,
			"color": "#6495ED"
		},
		{
			"id": 216,
			"cp": 6.54987495063841,
			"name": "池袋",
			"latitude": 35.72893,
			"longitude": 139.7104,
			"rent": 9.2,
			"time": 6,
			"color": "#6495ED"
		},
		{
			"id": 217,
			"cp": 4.54924772804336,
			"name": "新高島平",
			"latitude": 35.790294,
			"longitude": 139.654267,
			"rent": 7.3,
			"time": 42,
			"color": "#6495ED"
		},
		{
			"id": 218,
			"cp": 4.54680080742194,
			"name": "青葉台",
			"latitude": 35.542955,
			"longitude": 139.517182,
			"rent": 7.2,
			"time": 43,
			"color": "#6495ED"
		},
		{
			"id": 219,
			"cp": 6.4745294195077,
			"name": "新大久保",
			"latitude": 35.70131,
			"longitude": 139.7,
			"rent": 9.5,
			"time": 3,
			"color": "#6495ED"
		},
		{
			"id": 220,
			"cp": 6.44846649993419,
			"name": "下落合",
			"latitude": 35.715846,
			"longitude": 139.695152,
			"rent": 9.2,
			"time": 10,
			"color": "#6495ED"
		},
		{
			"id": 221,
			"cp": 4.51109808121011,
			"name": "桜木町",
			"latitude": 35.450918,
			"longitude": 139.631073,
			"rent": 7.6,
			"time": 40,
			"color": "#6495ED"
		},
		{
			"id": 222,
			"cp": 4.44785493994231,
			"name": "向河原",
			"latitude": 35.572908,
			"longitude": 139.667242,
			"rent": 8.1,
			"time": 37,
			"color": "#6495ED"
		},
		{
			"id": 223,
			"cp": 6.34729498486245,
			"name": "新大塚",
			"latitude": 35.725793,
			"longitude": 139.729915,
			"rent": 9.3,
			"time": 12,
			"color": "#6495ED"
		},
		{
			"id": 224,
			"cp": 6.34443700220801,
			"name": "新井薬師前",
			"latitude": 35.715795,
			"longitude": 139.671885,
			"rent": 8.7,
			"time": 15,
			"color": "#6495ED"
		},
		{
			"id": 225,
			"cp": 6.32324601816507,
			"name": "大久保",
			"latitude": 35.70072,
			"longitude": 139.6974,
			"rent": 9.85,
			"time": 2,
			"color": "#6495ED"
		},
		{
			"id": 226,
			"cp": 6.32265367908385,
			"name": "代々木公園",
			"latitude": 35.668954,
			"longitude": 139.691318,
			"rent": 9.6,
			"time": 7,
			"color": "#6495ED"
		},
		{
			"id": 227,
			"cp": 4.42012162000021,
			"name": "平間",
			"latitude": 35.56104,
			"longitude": 139.671039,
			"rent": 7.9,
			"time": 39,
			"color": "#6495ED"
		},
		{
			"id": 228,
			"cp": 6.27242332499671,
			"name": "代々木八幡",
			"latitude": 35.669484,
			"longitude": 139.688635,
			"rent": 9.8,
			"time": 5,
			"color": "#6495ED"
		},
		{
			"id": 229,
			"cp": 4.38536777830436,
			"name": "武蔵中原",
			"latitude": 35.5806616208895,
			"longitude": 139.642101069912,
			"rent": 8.5,
			"time": 35,
			"color": "#6495ED"
		},
		{
			"id": 230,
			"cp": 6.24683427668817,
			"name": "市ケ谷",
			"latitude": 35.69121,
			"longitude": 139.7365,
			"rent": 9.7,
			"time": 8,
			"color": "#6495ED"
		},
		{
			"id": 231,
			"cp": 6.24350242276875,
			"name": "春日",
			"latitude": 35.7098292315065,
			"longitude": 139.753185447771,
			"rent": 8.9,
			"time": 15,
			"color": "#6495ED"
		},
		{
			"id": 232,
			"cp": 6.24350242276875,
			"name": "大井町",
			"latitude": 35.606249,
			"longitude": 139.734855,
			"rent": 8.9,
			"time": 15,
			"color": "#6495ED"
		},
		{
			"id": 233,
			"cp": 6.2217190996446,
			"name": "東新宿",
			"latitude": 35.69792,
			"longitude": 139.707549,
			"rent": 9.8,
			"time": 7,
			"color": "#6495ED"
		},
		{
			"id": 234,
			"cp": 6.22148216401211,
			"name": "若松河田",
			"latitude": 35.699218,
			"longitude": 139.718184,
			"rent": 9.7,
			"time": 9,
			"color": "#6495ED"
		},
		{
			"id": 235,
			"cp": 4.34018691588785,
			"name": "千葉",
			"latitude": 35.61286,
			"longitude": 140.1143,
			"rent": 6.3,
			"time": 72,
			"color": "#6495ED"
		},
		{
			"id": 236,
			"cp": 6.17994627901056,
			"name": "茗荷谷",
			"latitude": 35.717305,
			"longitude": 139.736734,
			"rent": 9.3,
			"time": 14,
			"color": "#6495ED"
		},
		{
			"id": 237,
			"cp": 4.32138090917744,
			"name": "小田原",
			"latitude": 35.2563636441241,
			"longitude": 139.155380171723,
			"rent": 6.6,
			"time": 58,
			"color": "#6495ED"
		},
		{
			"id": 238,
			"cp": 6.17054100302751,
			"name": "大崎",
			"latitude": 35.6197,
			"longitude": 139.7286,
			"rent": 9.6,
			"time": 13,
			"color": "#6495ED"
		},
		{
			"id": 239,
			"cp": 4.29443377477396,
			"name": "反町",
			"latitude": 35.47474,
			"longitude": 139.6253,
			"rent": 7.6,
			"time": 44,
			"color": "#6495ED"
		},
		{
			"id": 240,
			"cp": 6.09543240752929,
			"name": "御茶ノ水",
			"latitude": 35.69986,
			"longitude": 139.7638,
			"rent": 10,
			"time": 8,
			"color": "#6495ED"
		},
		{
			"id": 241,
			"cp": 6.04508358562591,
			"name": "都庁前",
			"latitude": 35.6905756760696,
			"longitude": 139.69266111846,
			"rent": 10.15,
			"time": 7,
			"color": "#6495ED"
		},
		{
			"id": 242,
			"cp": 6.01937606950112,
			"name": "牛込柳町",
			"latitude": 35.699518,
			"longitude": 139.725027,
			"rent": 10,
			"time": 11,
			"color": "#6495ED"
		},
		{
			"id": 243,
			"cp": 5.99426089245755,
			"name": "神田",
			"latitude": 35.69169,
			"longitude": 139.7709,
			"rent": 10.1,
			"time": 10,
			"color": "#6495ED"
		},
		{
			"id": 244,
			"cp": 5.99116597417062,
			"name": "後楽園",
			"latitude": 35.707337,
			"longitude": 139.7512,
			"rent": 9.4,
			"time": 15,
			"color": "#6495ED"
		},
		{
			"id": 245,
			"cp": 5.97807712013205,
			"name": "江戸川橋",
			"latitude": 35.709495,
			"longitude": 139.733538,
			"rent": 9.7,
			"time": 14,
			"color": "#6495ED"
		},
		{
			"id": 246,
			"cp": 5.95116244535814,
			"name": "駒沢大学",
			"latitude": 35.633471,
			"longitude": 139.661702,
			"rent": 8.7,
			"time": 18,
			"color": "#6495ED"
		},
		{
			"id": 247,
			"cp": 5.89023139473137,
			"name": "三軒茶屋",
			"latitude": 35.643515,
			"longitude": 139.671162,
			"rent": 9.6,
			"time": 15,
			"color": "#6495ED"
		},
		{
			"id": 248,
			"cp": 4.1133639251981,
			"name": "浜川崎",
			"latitude": 35.510414,
			"longitude": 139.713484,
			"rent": 7.1,
			"time": 56,
			"color": "#6495ED"
		},
		{
			"id": 249,
			"cp": 4.10653390335327,
			"name": "藤が丘",
			"latitude": 35.543595,
			"longitude": 139.527873,
			"rent": 7.7,
			"time": 47,
			"color": "#6495ED"
		},
		{
			"id": 250,
			"cp": 5.85022786591889,
			"name": "日本橋",
			"latitude": 35.682413,
			"longitude": 139.773919,
			"rent": 8.9,
			"time": 18,
			"color": "#6495ED"
		},
		{
			"id": 251,
			"cp": 5.82714676263786,
			"name": "田端",
			"latitude": 35.73806,
			"longitude": 139.7609,
			"rent": 8.7,
			"time": 19,
			"color": "#6495ED"
		},
		{
			"id": 252,
			"cp": 5.81869158878505,
			"name": "新宿",
			"latitude": 35.68845,
			"longitude": 139.6986,
			"rent": 10.9,
			"time": 1,
			"color": "#6495ED"
		},
		{
			"id": 253,
			"cp": 5.81869158878505,
			"name": "新宿三丁目",
			"latitude": 35.690616,
			"longitude": 139.706271,
			"rent": 10.9,
			"time": 1,
			"color": "#6495ED"
		},
		{
			"id": 254,
			"cp": 5.79333947610899,
			"name": "新宿御苑前",
			"latitude": 35.688588,
			"longitude": 139.71069,
			"rent": 10.9,
			"time": 2,
			"color": "#6495ED"
		},
		{
			"id": 255,
			"cp": 5.79203633013032,
			"name": "五反田",
			"latitude": 35.626446,
			"longitude": 139.723444,
			"rent": 10.35,
			"time": 13,
			"color": "#6495ED"
		},
		{
			"id": 256,
			"cp": 5.74287218638936,
			"name": "西新宿",
			"latitude": 35.694298,
			"longitude": 139.692778,
			"rent": 11,
			"time": 2,
			"color": "#6495ED"
		},
		{
			"id": 257,
			"cp": 5.71633539555088,
			"name": "池尻大橋",
			"latitude": 35.650603,
			"longitude": 139.684319,
			"rent": 10.5,
			"time": 13,
			"color": "#6495ED"
		},
		{
			"id": 258,
			"cp": 5.69216796103725,
			"name": "四谷三丁目",
			"latitude": 35.687958,
			"longitude": 139.720103,
			"rent": 11,
			"time": 4,
			"color": "#6495ED"
		},
		{
			"id": 259,
			"cp": 5.69169408977228,
			"name": "九段下",
			"latitude": 35.6954318835582,
			"longitude": 139.75112569984,
			"rent": 10.8,
			"time": 8,
			"color": "#6495ED"
		},
		{
			"id": 260,
			"cp": 5.66728971962617,
			"name": "代々木",
			"latitude": 35.6830438382709,
			"longitude": 139.70207164355,
			"rent": 11.2,
			"time": 1,
			"color": "#6495ED"
		},
		{
			"id": 261,
			"cp": 5.66610504146374,
			"name": "目黒",
			"latitude": 35.633998,
			"longitude": 139.715828,
			"rent": 10.7,
			"time": 11,
			"color": "#6495ED"
		},
		{
			"id": 262,
			"cp": 5.64193760695011,
			"name": "南新宿",
			"latitude": 35.683469,
			"longitude": 139.698517,
			"rent": 11.2,
			"time": 2,
			"color": "#6495ED"
		},
		{
			"id": 263,
			"cp": 5.62448130672849,
			"name": "駒込",
			"latitude": 35.73649,
			"longitude": 139.7469,
			"rent": 9.6,
			"time": 17,
			"color": "#6495ED"
		},
		{
			"id": 264,
			"cp": 5.61634855864157,
			"name": "四ツ谷",
			"latitude": 35.68601,
			"longitude": 139.7307,
			"rent": 11.1,
			"time": 5,
			"color": "#6495ED"
		},
		{
			"id": 265,
			"cp": 5.60566158862282,
			"name": "桜新町",
			"latitude": 35.631666,
			"longitude": 139.644779,
			"rent": 8.9,
			"time": 20,
			"color": "#6495ED"
		},
		{
			"id": 266,
			"cp": 5.56517046202448,
			"name": "飯田橋",
			"latitude": 35.702065,
			"longitude": 139.745015,
			"rent": 10.9,
			"time": 11,
			"color": "#6495ED"
		},
		{
			"id": 267,
			"cp": 5.564933526392,
			"name": "牛込神楽坂",
			"latitude": 35.700851,
			"longitude": 139.735802,
			"rent": 10.8,
			"time": 13,
			"color": "#6495ED"
		},
		{
			"id": 268,
			"cp": 5.5156509148348,
			"name": "曙橋",
			"latitude": 35.6923758,
			"longitude": 139.7226303,
			"rent": 11.4,
			"time": 3,
			"color": "#6495ED"
		},
		{
			"id": 269,
			"cp": 5.43983151243912,
			"name": "原宿",
			"latitude": 35.67017,
			"longitude": 139.7027,
			"rent": 11.5,
			"time": 4,
			"color": "#6495ED"
		},
		{
			"id": 270,
			"cp": 5.41447939976306,
			"name": "渋谷",
			"latitude": 35.65862,
			"longitude": 139.6994,
			"rent": 11.5,
			"time": 5,
			"color": "#6495ED"
		},
		{
			"id": 271,
			"cp": 5.39602225844225,
			"name": "森下",
			"latitude": 35.6880078574585,
			"longitude": 139.79817285086,
			"rent": 9.8,
			"time": 18,
			"color": "#6495ED"
		},
		{
			"id": 272,
			"cp": 5.38865341582203,
			"name": "神保町",
			"latitude": 35.6959161119354,
			"longitude": 139.757439452223,
			"rent": 11.3,
			"time": 10,
			"color": "#6495ED"
		},
		{
			"id": 273,
			"cp": 5.37294115516123,
			"name": "本郷三丁目",
			"latitude": 35.7074415606801,
			"longitude": 139.760448848828,
			"rent": 9.6,
			"time": 19,
			"color": "#6495ED"
		},
		{
			"id": 274,
			"cp": 5.36330130314598,
			"name": "恵比寿",
			"latitude": 35.64669,
			"longitude": 139.7101,
			"rent": 11.3,
			"time": 11,
			"color": "#6495ED"
		},
		{
			"id": 275,
			"cp": 5.31189687019064,
			"name": "住吉",
			"latitude": 35.689071,
			"longitude": 139.815651,
			"rent": 9.25,
			"time": 21,
			"color": "#6495ED"
		},
		{
			"id": 276,
			"cp": 5.28666322533082,
			"name": "戸越",
			"latitude": 35.614719,
			"longitude": 139.716398,
			"rent": 9.3,
			"time": 21,
			"color": "#6495ED"
		},
		{
			"id": 277,
			"cp": 5.2712102786911,
			"name": "東日本橋",
			"latitude": 35.692126,
			"longitude": 139.784821,
			"rent": 10.3,
			"time": 17,
			"color": "#6495ED"
		},
		{
			"id": 278,
			"cp": 5.26436335394038,
			"name": "中延",
			"latitude": 35.605479,
			"longitude": 139.713679,
			"rent": 8.9,
			"time": 23,
			"color": "#6495ED"
		},
		{
			"id": 279,
			"cp": 5.26236672370673,
			"name": "表参道",
			"latitude": 35.665247,
			"longitude": 139.712314,
			"rent": 11.5,
			"time": 11,
			"color": "#6495ED"
		},
		{
			"id": 280,
			"cp": 5.22715691572563,
			"name": "新木場",
			"latitude": 35.646157,
			"longitude": 139.827426,
			"rent": 9.65,
			"time": 20,
			"color": "#6495ED"
		},
		{
			"id": 281,
			"cp": 5.22074298897148,
			"name": "浅草橋",
			"latitude": 35.697452386729,
			"longitude": 139.786369695793,
			"rent": 10.4,
			"time": 17,
			"color": "#6495ED"
		},
		{
			"id": 282,
			"cp": 5.21166249835461,
			"name": "赤羽橋",
			"latitude": 35.655007,
			"longitude": 139.743642,
			"rent": 11.5,
			"time": 13,
			"color": "#6495ED"
		},
		{
			"id": 283,
			"cp": 5.20192327086582,
			"name": "有楽町",
			"latitude": 35.67507,
			"longitude": 139.7633,
			"rent": 9.7,
			"time": 20,
			"color": "#6495ED"
		},
		{
			"id": 284,
			"cp": 5.12244442337779,
			"name": "両国",
			"latitude": 35.6966186752156,
			"longitude": 139.797366606071,
			"rent": 9.4,
			"time": 22,
			"color": "#6495ED"
		},
		{
			"id": 285,
			"cp": 5.11296148478151,
			"name": "西大島",
			"latitude": 35.689349,
			"longitude": 139.826206,
			"rent": 9.2,
			"time": 23,
			"color": "#6495ED"
		},
		{
			"id": 286,
			"cp": 5.11296148478151,
			"name": "用賀",
			"latitude": 35.626436,
			"longitude": 139.633928,
			"rent": 9.2,
			"time": 23,
			"color": "#6495ED"
		},
		{
			"id": 287,
			"cp": 5.09948349332923,
			"name": "銀座",
			"latitude": 35.671989,
			"longitude": 139.763965,
			"rent": 10.9,
			"time": 16,
			"color": "#6495ED"
		},
		{
			"id": 288,
			"cp": 5.08632354876925,
			"name": "信濃町",
			"latitude": 35.68009,
			"longitude": 139.7202,
			"rent": 12.1,
			"time": 6,
			"color": "#6495ED"
		},
		{
			"id": 289,
			"cp": 5.07197713365816,
			"name": "門前仲町",
			"latitude": 35.6724674827531,
			"longitude": 139.794726411346,
			"rent": 9.5,
			"time": 22,
			"color": "#6495ED"
		},
		{
			"id": 290,
			"cp": 5.06026062919574,
			"name": "岩本町",
			"latitude": 35.6955703928471,
			"longitude": 139.775131931528,
			"rent": 11.8,
			"time": 13,
			"color": "#6495ED"
		},
		{
			"id": 291,
			"cp": 5.03228746949772,
			"name": "馬喰横山",
			"latitude": 35.6919602404342,
			"longitude": 139.782943215686,
			"rent": 11.3,
			"time": 15,
			"color": "#6495ED"
		},
		{
			"id": 292,
			"cp": 5.01121495327103,
			"name": "西武新宿",
			"latitude": 35.696254,
			"longitude": 139.7,
			"rent": 12.5,
			"time": 1,
			"color": "#6495ED"
		},
		{
			"id": 293,
			"cp": 5.00288821881451,
			"name": "大島",
			"latitude": 35.689905,
			"longitude": 139.83565,
			"rent": 9,
			"time": 25,
			"color": "#6495ED"
		},
		{
			"id": 294,
			"cp": 4.97765457395469,
			"name": "浅草",
			"latitude": 35.712074,
			"longitude": 139.79843,
			"rent": 9.05,
			"time": 25,
			"color": "#6495ED"
		},
		{
			"id": 295,
			"cp": 4.96920283740422,
			"name": "上野",
			"latitude": 35.71377,
			"longitude": 139.7773,
			"rent": 10.4,
			"time": 19,
			"color": "#6495ED"
		},
		{
			"id": 296,
			"cp": 4.96840654037335,
			"name": "御徒町",
			"latitude": 35.70796,
			"longitude": 139.7734,
			"rent": 10.9,
			"time": 17,
			"color": "#6495ED"
		},
		{
			"id": 297,
			"cp": 4.96051072791892,
			"name": "千駄ケ谷",
			"latitude": 35.68123,
			"longitude": 139.7116,
			"rent": 12.5,
			"time": 3,
			"color": "#6495ED"
		},
		{
			"id": 298,
			"cp": 4.95956298538897,
			"name": "麹町",
			"latitude": 35.684006,
			"longitude": 139.737613,
			"rent": 12.1,
			"time": 11,
			"color": "#6495ED"
		},
		{
			"id": 299,
			"cp": 4.95932604975648,
			"name": "東京",
			"latitude": 35.68138,
			"longitude": 139.7661,
			"rent": 12,
			"time": 13,
			"color": "#6495ED"
		},
		{
			"id": 300,
			"cp": 4.94958682226769,
			"name": "菊川",
			"latitude": 35.688379,
			"longitude": 139.806016,
			"rent": 10.2,
			"time": 20,
			"color": "#6495ED"
		},
		{
			"id": 301,
			"cp": 4.90909569566934,
			"name": "麻布十番",
			"latitude": 35.6563901467552,
			"longitude": 139.73650493659,
			"rent": 12.2,
			"time": 11,
			"color": "#6495ED"
		},
		{
			"id": 302,
			"cp": 4.89761433445073,
			"name": "浜町",
			"latitude": 35.6884108373731,
			"longitude": 139.787933654151,
			"rent": 11.3,
			"time": 16,
			"color": "#6495ED"
		},
		{
			"id": 303,
			"cp": 4.88469132552323,
			"name": "国立競技場",
			"latitude": 35.6801622315799,
			"longitude": 139.713748970534,
			"rent": 12.6,
			"time": 4,
			"color": "#6495ED"
		},
		{
			"id": 304,
			"cp": 4.88292490757381,
			"name": "品川",
			"latitude": 35.63015,
			"longitude": 139.7404,
			"rent": 10.1,
			"time": 21,
			"color": "#6495ED"
		},
		{
			"id": 305,
			"cp": 4.86525272207686,
			"name": "大森",
			"latitude": 35.588442,
			"longitude": 139.727929,
			"rent": 8.88,
			"time": 27,
			"color": "#6495ED"
		},
		{
			"id": 306,
			"cp": 4.86169082679297,
			"name": "若林",
			"latitude": 35.646,
			"longitude": 139.6599,
			"rent": 8.7,
			"time": 28,
			"color": "#6495ED"
		},
		{
			"id": 307,
			"cp": 4.8588653415822,
			"name": "六本木",
			"latitude": 35.6639901963109,
			"longitude": 139.731414795387,
			"rent": 12.4,
			"time": 9,
			"color": "#6495ED"
		},
		{
			"id": 308,
			"cp": 4.83041831061922,
			"name": "大門",
			"latitude": 35.6568905486127,
			"longitude": 139.754699408076,
			"rent": 11.7,
			"time": 15,
			"color": "#6495ED"
		},
		{
			"id": 309,
			"cp": 4.82992561927312,
			"name": "本所吾妻橋",
			"latitude": 35.70858,
			"longitude": 139.804624,
			"rent": 8.95,
			"time": 27,
			"color": "#6495ED"
		},
		{
			"id": 310,
			"cp": 4.81780096824534,
			"name": "秋葉原",
			"latitude": 35.69868,
			"longitude": 139.7742,
			"rent": 10.7,
			"time": 19,
			"color": "#6495ED"
		},
		{
			"id": 311,
			"cp": 4.81700467121447,
			"name": "上野御徒町",
			"latitude": 35.7079636219993,
			"longitude": 139.77336630458,
			"rent": 11.2,
			"time": 17,
			"color": "#6495ED"
		},
		{
			"id": 312,
			"cp": 4.81015774646375,
			"name": "根津",
			"latitude": 35.717373,
			"longitude": 139.765741,
			"rent": 9.8,
			"time": 23,
			"color": "#6495ED"
		},
		{
			"id": 313,
			"cp": 4.81015774646375,
			"name": "清澄白河",
			"latitude": 35.682105,
			"longitude": 139.798851,
			"rent": 9.8,
			"time": 23,
			"color": "#6495ED"
		},
		{
			"id": 314,
			"cp": 4.81015774646375,
			"name": "宝町",
			"latitude": 35.675461,
			"longitude": 139.771767,
			"rent": 9.8,
			"time": 23,
			"color": "#6495ED"
		},
		{
			"id": 315,
			"cp": 4.80469197441331,
			"name": "八丁堀",
			"latitude": 35.674617,
			"longitude": 139.777705,
			"rent": 9,
			"time": 27,
			"color": "#6495ED"
		},
		{
			"id": 316,
			"cp": 4.79667975501148,
			"name": "広尾",
			"latitude": 35.652279,
			"longitude": 139.722227,
			"rent": 11.5,
			"time": 16,
			"color": "#6495ED"
		},
		{
			"id": 317,
			"cp": 4.78269053573779,
			"name": "淡路町",
			"latitude": 35.6951394459061,
			"longitude": 139.766835335176,
			"rent": 12.35,
			"time": 13,
			"color": "#6495ED"
		},
		{
			"id": 318,
			"cp": 4.77035961631841,
			"name": "押上",
			"latitude": 35.710702,
			"longitude": 139.812935,
			"rent": 8.7,
			"time": 29,
			"color": "#6495ED"
		},
		{
			"id": 319,
			"cp": 4.71607009177522,
			"name": "新橋",
			"latitude": 35.665498,
			"longitude": 139.75964,
			"rent": 11.4,
			"time": 17,
			"color": "#6495ED"
		},
		{
			"id": 320,
			"cp": 4.7102889576341,
			"name": "亀戸",
			"latitude": 35.69759,
			"longitude": 139.8261,
			"rent": 9,
			"time": 28,
			"color": "#6495ED"
		},
		{
			"id": 321,
			"cp": 4.7092231670245,
			"name": "勝どき",
			"latitude": 35.6589560224249,
			"longitude": 139.777108824346,
			"rent": 10,
			"time": 23,
			"color": "#6495ED"
		},
		{
			"id": 322,
			"cp": 4.70770040805581,
			"name": "青山一丁目",
			"latitude": 35.6727646167049,
			"longitude": 139.723904316779,
			"rent": 12.8,
			"time": 7,
			"color": "#6495ED"
		},
		{
			"id": 323,
			"cp": 4.64961719077712,
			"name": "豊洲",
			"latitude": 35.654908,
			"longitude": 139.79621,
			"rent": 9.7,
			"time": 25,
			"color": "#6495ED"
		},
		{
			"id": 324,
			"cp": 4.62854915174071,
			"name": "乃木坂",
			"latitude": 35.666572,
			"longitude": 139.726215,
			"rent": 12.1,
			"time": 15,
			"color": "#6495ED"
		},
		{
			"id": 325,
			"cp": 4.60209594520464,
			"name": "蔵前",
			"latitude": 35.7054625570622,
			"longitude": 139.79250910459,
			"rent": 10,
			"time": 24,
			"color": "#6495ED"
		},
		{
			"id": 326,
			"cp": 4.58012116925606,
			"name": "築地市場",
			"latitude": 35.664895,
			"longitude": 139.766915,
			"rent": 10.7,
			"time": 21,
			"color": "#6495ED"
		},
		{
			"id": 327,
			"cp": 4.55782129786562,
			"name": "高輪ゲートウェイ",
			"latitude": 35.6355,
			"longitude": 139.7407,
			"rent": 10.3,
			"time": 23,
			"color": "#6495ED"
		},
		{
			"id": 328,
			"cp": 4.54868261133787,
			"name": "月島",
			"latitude": 35.6638199832237,
			"longitude": 139.783909963443,
			"rent": 9.9,
			"time": 25,
			"color": "#6495ED"
		},
		{
			"id": 329,
			"cp": 4.53807833320861,
			"name": "汐留",
			"latitude": 35.6628872948688,
			"longitude": 139.760140478611,
			"rent": 11.5,
			"time": 18,
			"color": "#6495ED"
		},
		{
			"id": 330,
			"cp": 4.5325876530058,
			"name": "新御徒町",
			"latitude": 35.707055,
			"longitude": 139.78194,
			"rent": 10.35,
			"time": 23,
			"color": "#6495ED"
		},
		{
			"id": 331,
			"cp": 4.51435984290054,
			"name": "蒲田",
			"latitude": 35.562479,
			"longitude": 139.716051,
			"rent": 8.7,
			"time": 32,
			"color": "#6495ED"
		},
		{
			"id": 332,
			"cp": 4.49821532161825,
			"name": "築地",
			"latitude": 35.668115,
			"longitude": 139.772603,
			"rent": 10,
			"time": 25,
			"color": "#6495ED"
		},
		{
			"id": 333,
			"cp": 4.4551270238252,
			"name": "赤坂見附",
			"latitude": 35.677021,
			"longitude": 139.737047,
			"rent": 13.2,
			"time": 9,
			"color": "#6495ED"
		},
		{
			"id": 334,
			"cp": 4.45142094637593,
			"name": "辰巳",
			"latitude": 35.645576,
			"longitude": 139.81052,
			"rent": 9.7,
			"time": 27,
			"color": "#6495ED"
		},
		{
			"id": 335,
			"cp": 4.45069407604576,
			"name": "人形町",
			"latitude": 35.686307,
			"longitude": 139.782285,
			"rent": 10.3,
			"time": 24,
			"color": "#6495ED"
		},
		{
			"id": 336,
			"cp": 4.41590236730302,
			"name": "東銀座",
			"latitude": 35.669464,
			"longitude": 139.767253,
			"rent": 10.8,
			"time": 22,
			"color": "#6495ED"
		},
		{
			"id": 337,
			"cp": 4.36543507758339,
			"name": "内幸町",
			"latitude": 35.66975,
			"longitude": 139.75561,
			"rent": 10.9,
			"time": 22,
			"color": "#6495ED"
		},
		{
			"id": 338,
			"cp": 4.34975949660651,
			"name": "泉岳寺",
			"latitude": 35.638692,
			"longitude": 139.74002,
			"rent": 10.5,
			"time": 24,
			"color": "#6495ED"
		},
		{
			"id": 339,
			"cp": 4.29929220688688,
			"name": "三田",
			"latitude": 35.64818,
			"longitude": 139.748775,
			"rent": 10.6,
			"time": 24,
			"color": "#6495ED"
		},
		{
			"id": 340,
			"cp": 4.24587887302012,
			"name": "田町",
			"latitude": 35.64574,
			"longitude": 139.7476,
			"rent": 10.5,
			"time": 25,
			"color": "#6495ED"
		},
		{
			"id": 341,
			"cp": 4.23742713646964,
			"name": "白金台",
			"latitude": 35.637917,
			"longitude": 139.726133,
			"rent": 11.85,
			"time": 19,
			"color": "#6495ED"
		},
		{
			"id": 342,
			"cp": 4.22766881663815,
			"name": "外苑前",
			"latitude": 35.670527,
			"longitude": 139.717857,
			"rent": 13.5,
			"time": 12,
			"color": "#6495ED"
		},
		{
			"id": 343,
			"cp": 4.12691632725039,
			"name": "西太子堂",
			"latitude": 35.64466,
			"longitude": 139.6662,
			"rent": 9.8,
			"time": 30,
			"color": "#6495ED"
		},
		{
			"id": 344,
			"cp": 4.0754482720598,
			"name": "高輪台",
			"latitude": 35.631679,
			"longitude": 139.730305,
			"rent": 11.7,
			"time": 21,
			"color": "#6495ED"
		},
		{
			"id": 345,
			"cp": 4.06263133926564,
			"name": "白金高輪",
			"latitude": 35.642903,
			"longitude": 139.734104,
			"rent": 11.5,
			"time": 22,
			"color": "#6495ED"
		},
		{
			"id": 346,
			"cp": 3.95938553134701,
			"name": "溜池山王",
			"latitude": 35.673621,
			"longitude": 139.741419,
			"rent": 13.7,
			"time": 14,
			"color": "#6495ED"
		},
		{
			"id": 347,
			"cp": 3.9522138212301,
			"name": "芝公園",
			"latitude": 35.654071,
			"longitude": 139.749838,
			"rent": 11.5,
			"time": 23,
			"color": "#6495ED"
		},
		{
			"id": 348,
			"cp": 3.95021719099645,
			"name": "小川町",
			"latitude": 35.6951394459061,
			"longitude": 139.766835335176,
			"rent": 14.1,
			"time": 11,
			"color": "#6495ED"
		},
		{
			"id": 349,
			"cp": 3.87439778860076,
			"name": "国会議事堂前",
			"latitude": 35.67393,
			"longitude": 139.745219,
			"rent": 14.2,
			"time": 12,
			"color": "#6495ED"
		},
		{
			"id": 350,
			"cp": 3.78883915871628,
			"name": "大手町",
			"latitude": 35.684801,
			"longitude": 139.766086,
			"rent": 12.5,
			"time": 20,
			"color": "#6495ED"
		},
		{
			"id": 351,
			"cp": 3.74120597582385,
			"name": "御成門",
			"latitude": 35.6604750470776,
			"longitude": 139.751202268526,
			"rent": 11.5,
			"time": 25,
			"color": "#6495ED"
		},
		{
			"id": 352,
			"cp": 3.64788732394366,
			"name": "市ヶ谷",
			"latitude": 35.6912107320703,
			"longitude": 139.73649022635,
			"rent": 14.9,
			"time": 7,
			"color": "#6495ED"
		},
		{
			"id": 353,
			"cp": 3.6402713963846,
			"name": "浜松町",
			"latitude": 35.65565,
			"longitude": 139.7567,
			"rent": 11.7,
			"time": 25,
			"color": "#6495ED"
		},
		{
			"id": 354,
			"cp": 3.27639609021796,
			"name": "赤坂",
			"latitude": 35.672371,
			"longitude": 139.736539,
			"rent": 14,
			"time": 18,
			"color": "#6495ED"
		}
	]
}
